$HEHDT,161.54,T*18
$HEROT,-1.4,A*03
$PSAT,HPR,044551.70,161.54,-2.83,1.4,N*32
$GPGGA,044551.70,3101.7197884,N,12126.3598902,E,2,08,1.1,4.316,M,9.725,M,6.7,0129*78
$GPVTG,13.48,T,19.24,M,0.11,N,0.21,K,D*25
$HEHDT,161.54,T*18
$HEROT,-1.4,A*03
$PSAT,HPR,044551.80,161.54,-2.84,1.4,N*3A
$GPGGA,044551.80,3101.7197881,N,12126.3598910,E,2,08,1.1,4.316,M,9.725,M,6.8,0129*7E
$GPVTG,13.43,T,19.19,M,0.11,N,0.21,K,D*20
$HEHDT,161.53,T*1F
$HEROT,-1.3,A*04
$PSAT,HPR,044551.90,161.53,-2.86,1.4,N*3E
$GPGGA,044551.90,3101.7197883,N,12126.3598910,E,2,08,1.1,4.321,M,9.725,M,6.9,0129*78
$GPVTG,15.61,T,21.37,M,0.06,N,0.12,K,D*27
$HEHDT,161.53,T*1F
$HEROT,-1.4,A*03
$PSAT,HPR,044552.00,161.53,-2.82,1.4,N*30
$GPGGA,044552.00,3101.7197888,N,12126.3598905,E,2,08,1.1,4.323,M,9.725,M,7.0,0129*77
$GPVTG,205.40,T,211.16,M,0.11,N,0.21,K,D*23
$HEHDT,161.53,T*1F
$HEROT,-1.3,A*04
$PSAT,HPR,044552.10,161.53,-2.66,1.4,N*3B
$GPGGA,044552.10,3101.7197888,N,12126.3598904,E,2,08,1.1,4.324,M,9.725,M,7.1,0129*71
$GPVTG,202.77,T,208.53,M,0.18,N,0.33,K,D*23
$HEHDT,161.54,T*18
$HEROT,-1.2,A*05
$PSAT,HPR,044552.20,161.54,-2.67,1.4,N*3E
$GPGGA,044552.20,3101.7197885,N,12126.3598900,E,2,08,1.1,4.327,M,9.725,M,7.2,0129*7B
$GPVTG,194.99,T,200.76,M,0.08,N,0.16,K,D*26
$HEHDT,161.53,T*1F
$HEROT,-1.4,A*03
$PSAT,HPR,044552.30,161.53,-2.63,1.4,N*3C
$GPGGA,044552.30,3101.7197879,N,12126.3598897,E,2,08,1.1,4.325,M,9.725,M,7.3,0129*75
$GPVTG,109.70,T,115.47,M,0.08,N,0.16,K,D*20
$HEHDT,161.52,T*1E
$HEROT,-1.4,A*03
$PSAT,HPR,044552.40,161.52,-2.69,1.4,N*30
$GPGGA,044552.40,3101.7197883,N,12126.3598900,E,2,08,1.1,4.326,M,9.725,M,7.4,0129*7C
$GPVTG,31.61,T,37.37,M,0.05,N,0.09,K,D*2F
$HEHDT,161.52,T*1E
$HEROT,-1.4,A*03
$PSAT,HPR,044552.50,161.52,-2.79,1.4,N*30
$GPGGA,044552.50,3101.7197878,N,12126.3598901,E,2,08,1.1,4.324,M,9.725,M,7.5,0129*7B
$GPVTG,310.05,T,315.81,M,0.06,N,0.11,K,D*29
$HEHDT,161.52,T*1E
$HEROT,-1.4,A*03
$PSAT,HPR,044552.60,161.52,-2.74,1.4,N*3E
$GPGGA,044552.60,3101.7197860,N,12126.3598898,E,2,08,1.1,4.326,M,9.725,M,7.6,0129*71
$GPVTG,334.15,T,339.91,M,0.03,N,0.06,K,D*22
$HEHDT,161.52,T*1E
$HEROT,-1.4,A*03
$PSAT,HPR,044552.70,161.52,-2.72,1.4,N*39
$GPGGA,044552.70,3101.7197863,N,12126.3598892,E,2,08,1.1,4.327,M,9.725,M,3.7,0129*7D
$GPVTG,115.26,T,121.02,M,0.10,N,0.18,K,D*2F
$HEHDT,161.52,T*1E
$HEROT,-1.4,A*03
$PSAT,HPR,044552.80,161.52,-2.60,1.4,N*35
$GPGGA,044552.80,3101.7197853,N,12126.3598899,E,2,08,1.1,4.324,M,9.725,M,3.8,0129*76
$GPVTG,1.81,T,7.57,M,0.08,N,0.14,K,D*26
$HEHDT,161.53,T*1F
$HEROT,-1.3,A*04
$PSAT,HPR,044552.90,161.53,-2.63,1.4,N*36
$GPGGA,044552.90,3101.7197859,N,12126.3598900,E,2,08,1.1,4.328,M,9.725,M,3.9,0129*71
$GPVTG,220.97,T,226.73,M,0.08,N,0.15,K,D*26
$HEHDT,161.53,T*1F
$HEROT,-1.3,A*04
$PSAT,HPR,044553.00,161.53,-2.64,1.4,N*39
$GPGGA,044553.00,3101.7197867,N,12126.3598894,E,2,08,1.1,4.328,M,9.725,M,4.0,0129*76
$GPVTG,1.30,T,7.06,M,0.14,N,0.26,K,D*24
$HEHDT,161.52,T*1E
$HEROT,-1.4,A*03
$PSAT,HPR,044553.10,161.52,-2.73,1.4,N*3F
$GPGGA,044553.10,3101.7197868,N,12126.3598889,E,2,08,1.1,4.329,M,9.725,M,4.1,0129*74
$GPVTG,10.34,T,16.10,M,0.11,N,0.20,K,D*24
$HEHDT,161.52,T*1E
$HEROT,-1.5,A*02
$PSAT,HPR,044553.20,161.52,-2.84,1.4,N*34
$GPGGA,044553.20,3101.7197863,N,12126.3598885,E,2,08,1.1,4.331,M,9.725,M,4.2,0129*7A
$GPVTG,173.24,T,179.00,M,0.07,N,0.12,K,D*2E
$HEHDT,161.51,T*1D
$HEROT,-1.7,A*00
$PSAT,HPR,044553.30,161.51,-2.93,1.4,N*30
$GPGGA,044553.30,3101.7197867,N,12126.3598882,E,2,08,1.1,4.333,M,9.725,M,4.3,0129*7B
$GPVTG,359.12,T,4.88,M,0.10,N,0.18,K,D*26
$HEHDT,161.50,T*1C
$HEROT,-1.6,A*01
$PSAT,HPR,044553.40,161.50,-2.88,1.4,N*3C
$GPGGA,044553.40,3101.7197868,N,12126.3598877,E,2,08,1.1,4.336,M,9.725,M,4.4,0129*7B
$GPVTG,306.32,T,312.08,M,0.07,N,0.14,K,D*28
$HEHDT,161.50,T*1C
$HEROT,-1.5,A*02
$PSAT,HPR,044553.50,161.50,-2.89,1.4,N*3C
$GPGGA,044553.50,3101.7197870,N,12126.3598878,E,2,08,1.1,4.335,M,9.725,M,4.5,0129*7E
$GPVTG,36.03,T,41.79,M,0.12,N,0.22,K,D*28
$HEHDT,161.49,T*14
$HEROT,-1.7,A*00
$PSAT,HPR,044553.60,161.49,-3.00,1.4,N*37
$GPGGA,044553.60,3101.7197871,N,12126.3598874,E,2,08,1.1,4.337,M,9.725,M,4.6,0129*71
$GPVTG,73.33,T,79.09,M,0.05,N,0.08,K,D*28
$HEHDT,161.48,T*15
$HEROT,-1.7,A*00
$PSAT,HPR,044553.70,161.48,-2.98,1.4,N*37
$GPGGA,044553.70,3101.7197880,N,12126.3598874,E,2,08,1.1,4.341,M,9.725,M,4.7,0129*7E
$GPVTG,172.49,T,178.25,M,0.11,N,0.20,K,D*24
$HEHDT,161.48,T*15
$HEROT,-1.7,A*00
$PSAT,HPR,044553.80,161.48,-2.87,1.4,N*36
$GPGGA,044553.80,3101.7197885,N,12126.3598872,E,2,08,1.1,4.344,M,9.725,M,4.8,0129*78
$GPVTG,63.25,T,69.01,M,0.02,N,0.04,K,D*2C
$HEHDT,161.47,T*1A
$HEROT,-1.9,A*0E
$PSAT,HPR,044553.90,161.47,-2.81,1.4,N*3E
$GPGGA,044553.90,3101.7197881,N,12126.3598873,E,2,08,1.1,4.344,M,9.725,M,4.9,0129*7D
$GPVTG,206.23,T,211.99,M,0.03,N,0.05,K,D*27
$HEHDT,161.47,T*1A
$HEROT,-1.8,A*0F
$PSAT,HPR,044554.00,161.47,-2.69,1.4,N*36
$GPGGA,044554.00,3101.7197881,N,12126.3598877,E,2,08,1.1,4.344,M,9.725,M,5.0,0129*7F
$GPVTG,164.22,T,169.98,M,0.03,N,0.05,K,D*2C
$HEHDT,161.46,T*1B
$HEROT,-1.9,A*0E
$PSAT,HPR,044554.10,161.46,-2.76,1.4,N*38
$GPGGA,044554.10,3101.7197885,N,12126.3598875,E,2,08,1.1,4.346,M,9.725,M,5.1,0129*7B
$GPVTG,353.77,T,359.53,M,0.01,N,0.02,K,D*29
$HEHDT,161.46,T*1B
$HEROT,-1.9,A*0E
$PSAT,HPR,044554.20,161.46,-2.63,1.5,N*3E
$GPGGA,044554.20,3101.7197884,N,12126.3598877,E,2,08,1.1,4.348,M,9.725,M,5.2,0129*76
$GPVTG,0.74,T,6.50,M,0.02,N,0.04,K,D*20
$HEHDT,161.46,T*1B
$HEROT,-1.9,A*0E
$PSAT,HPR,044554.30,161.46,-2.61,1.5,N*3D
$GPGGA,044554.30,3101.7197889,N,12126.3598882,E,2,08,1.1,4.347,M,9.725,M,5.3,0129*7E
$GPVTG,298.86,T,304.62,M,0.03,N,0.06,K,D*2D
$HEHDT,161.46,T*1B
$HEROT,-2.0,A*04
$PSAT,HPR,044554.40,161.46,-2.70,1.4,N*3B
$GPGGA,044554.40,3101.7197899,N,12126.3598878,E,2,08,1.1,4.350,M,9.725,M,5.4,0129*7C
$GPVTG,29.35,T,35.11,M,0.07,N,0.13,K,D*28
$HEHDT,161.47,T*1A
$HEROT,-1.9,A*0E
$PSAT,HPR,044554.50,161.47,-2.72,1.4,N*39
$GPGGA,044554.50,3101.7197907,N,12126.3598887,E,2,08,1.1,4.352,M,9.725,M,5.5,0129*78
$GPVTG,200.38,T,206.14,M,0.09,N,0.17,K,D*21
$HEHDT,161.47,T*1A
$HEROT,-2.0,A*04
$PSAT,HPR,044554.60,161.47,-2.63,1.5,N*3B
$GPGGA,044554.60,3101.7197891,N,12126.3598879,E,2,08,1.1,4.349,M,9.725,M,5.6,0129*7D
$GPVTG,225.36,T,231.12,M,0.14,N,0.25,K,D*27
$HEHDT,161.47,T*1A
$HEROT,-2.0,A*04
$PSAT,HPR,044554.70,161.47,-2.69,1.4,N*31
$GPGGA,044554.70,3101.7197895,N,12126.3598881,E,2,08,1.1,4.350,M,9.725,M,5.7,0129*76
$GPVTG,190.49,T,196.25,M,0.14,N,0.26,K,D*2B
$HEHDT,161.48,T*15
$HEROT,-1.9,A*0E
$PSAT,HPR,044554.80,161.48,-2.62,1.4,N*3A
$GPGGA,044554.80,3101.7197899,N,12126.3598880,E,2,08,1.1,4.351,M,9.725,M,5.8,0129*7A
$GPVTG,329.49,T,335.25,M,0.08,N,0.15,K,D*2D
$HEHDT,161.47,T*1A
$HEROT,-1.9,A*0E
$PSAT,HPR,044554.90,161.47,-2.63,1.4,N*35
$GPGGA,044554.90,3101.7197885,N,12126.3598876,E,2,08,1.1,4.349,M,9.725,M,5.9,0129*77
$GPVTG,50.17,T,55.94,M,0.02,N,0.04,K,D*2E
$HEHDT,161.47,T*1A
$HEROT,-2.0,A*04
$PSAT,HPR,044555.00,161.47,-2.62,1.4,N*3C
$GPGGA,044555.00,3101.7197897,N,12126.3598884,E,2,08,1.1,4.352,M,9.725,M,6.0,0129*71
$GPVTG,27.49,T,33.25,M,0.17,N,0.31,K,D*2D
$HEHDT,161.48,T*15
$HEROT,-1.9,A*0E
$PSAT,HPR,044555.10,161.48,-2.66,1.5,N*37
$GPGGA,044555.10,3101.7197900,N,12126.3598880,E,2,08,1.1,4.350,M,9.725,M,6.1,0129*78
$GPVTG,167.59,T,173.36,M,0.06,N,0.10,K,D*2D
$HEHDT,161.48,T*15
$HEROT,-1.7,A*00
$PSAT,HPR,044555.20,161.48,-2.73,1.4,N*31
$GPGGA,044555.20,3101.7197891,N,12126.3598883,E,2,08,1.1,4.354,M,9.725,M,6.2,0129*76
$GPVTG,199.31,T,205.07,M,0.07,N,0.13,K,D*20
$HEHDT,161.49,T*14
$HEROT,-1.7,A*00
$PSAT,HPR,044555.30,161.49,-2.70,1.5,N*33
$GPGGA,044555.30,3101.7197892,N,12126.3598884,E,2,08,1.1,4.357,M,9.725,M,6.3,0129*71
$GPVTG,151.37,T,157.14,M,0.03,N,0.06,K,D*24
$HEHDT,161.49,T*14
$HEROT,-1.8,A*0F
$PSAT,HPR,044555.40,161.49,-2.72,1.5,N*36
$GPGGA,044555.40,3101.7197889,N,12126.3598881,E,2,08,1.1,4.359,M,9.725,M,6.4,0129*70
$GPVTG,18.17,T,23.93,M,0.12,N,0.23,K,D*20
$HEHDT,161.50,T*1C
$HEROT,-1.6,A*01
$PSAT,HPR,044555.50,161.50,-2.69,1.5,N*35
$GPGGA,044555.50,3101.7197906,N,12126.3598887,E,2,08,1.1,4.362,M,9.725,M,6.5,0129*78
$GPVTG,215.71,T,221.47,M,0.13,N,0.24,K,D*20
$HEHDT,161.52,T*1E
$HEROT,-1.4,A*03
$PSAT,HPR,044555.60,161.52,-2.60,1.5,N*3D
$GPGGA,044555.60,3101.7197908,N,12126.3598884,E,2,08,1.1,4.365,M,9.725,M,6.6,0129*72
$GPVTG,171.68,T,177.44,M,0.08,N,0.16,K,D*21
$HEHDT,161.53,T*1F
$HEROT,-1.3,A*04
$PSAT,HPR,044555.70,161.53,-2.60,1.5,N*3D
$GPGGA,044555.70,3101.7197905,N,12126.3598879,E,2,08,1.1,4.369,M,9.725,M,6.7,0129*71
$GPVTG,183.81,T,189.57,M,0.08,N,0.14,K,D*2A
$HEHDT,161.53,T*1F
$HEROT,-1.3,A*04
$PSAT,HPR,044555.80,161.53,-2.67,1.5,N*35
$GPGGA,044555.80,3101.7197911,N,12126.3598877,E,2,08,1.1,4.370,M,9.725,M,6.8,0129*72
$GPVTG,328.16,T,333.92,M,0.02,N,0.04,K,D*26
$HEHDT,161.54,T*18
$HEROT,-1.2,A*05
$PSAT,HPR,044555.90,161.54,-2.67,1.4,N*32
$GPGGA,044555.90,3101.7197914,N,12126.3598883,E,2,08,1.1,4.370,M,9.725,M,6.9,0129*7C
$GPVTG,31.37,T,37.13,M,0.13,N,0.24,K,D*22
$HEHDT,161.54,T*18
$HEROT,-1.3,A*04
$PSAT,HPR,044556.00,161.54,-2.68,1.5,N*36
$GPGGA,044556.00,3101.7197909,N,12126.3598877,E,2,08,1.1,4.373,M,9.725,M,7.0,0129*7A
$GPVTG,78.60,T,84.37,M,0.10,N,0.18,K,D*2F
$HEHDT,161.55,T*19
$HEROT,-1.1,A*06
$PSAT,HPR,044556.10,161.55,-2.61,1.5,N*3F
$GPGGA,044556.10,3101.7197916,N,12126.3598874,E,2,08,1.1,4.373,M,9.725,M,7.1,0129*77
$GPVTG,241.88,T,247.64,M,0.10,N,0.18,K,D*2A
$HEHDT,161.56,T*1A
$HEROT,-1.1,A*06
$PSAT,HPR,044556.20,161.56,-2.61,1.5,N*3F
$GPGGA,044556.20,3101.7197908,N,12126.3598879,E,2,08,1.1,4.374,M,9.725,M,7.2,0129*72
$GPVTG,207.55,T,213.31,M,0.08,N,0.15,K,D*2D
$HEHDT,161.56,T*1A
$HEROT,-1.0,A*07
$PSAT,HPR,044556.30,161.56,-2.55,1.5,N*39
$GPGGA,044556.30,3101.7197912,N,12126.3598876,E,2,08,1.1,4.374,M,9.725,M,7.3,0129*76
$GPVTG,38.28,T,44.05,M,0.20,N,0.37,K,D*24
$HEHDT,161.56,T*1A
$HEROT,-0.9,A*0F
$PSAT,HPR,044556.40,161.56,-2.57,1.5,N*3C
$GPGGA,044556.40,3101.7197906,N,12126.3598875,E,2,08,1.1,4.374,M,9.725,M,7.4,0129*70
$GPVTG,341.03,T,346.79,M,0.11,N,0.19,K,D*24
$HEHDT,161.56,T*1A
$HEROT,-0.9,A*0F
$PSAT,HPR,044556.50,161.56,-2.56,1.5,N*3C
$GPGGA,044556.50,3101.7197905,N,12126.3598884,E,2,08,1.1,4.370,M,9.725,M,5.5,0129*7B
$GPVTG,186.44,T,192.20,M,0.05,N,0.08,K,D*2C
$HEHDT,161.56,T*1A
$HEROT,-0.9,A*0F
$PSAT,HPR,044556.60,161.56,-2.56,1.5,N*3F
$GPGGA,044556.60,3101.7197919,N,12126.3598892,E,2,08,1.1,4.374,M,9.725,M,5.6,0129*75
$GPVTG,132.55,T,138.31,M,0.08,N,0.15,K,D*22
$HEHDT,161.56,T*1A
$HEROT,-0.9,A*0F
$PSAT,HPR,044556.70,161.56,-2.56,1.4,N*3F
$GPGGA,044556.70,3101.7197910,N,12126.3598896,E,2,08,1.1,4.371,M,9.725,M,5.7,0129*7D
$GPVTG,49.19,T,54.96,M,0.09,N,0.16,K,D*23
$HEHDT,161.56,T*1A
$HEROT,-1.0,A*07
$PSAT,HPR,044556.80,161.56,-2.55,1.4,N*33
$GPGGA,044556.80,3101.7197914,N,12126.3598892,E,2,08,1.1,4.370,M,9.725,M,5.8,0129*7C
$GPVTG,151.83,T,157.59,M,0.05,N,0.10,K,D*23
$HEHDT,161.56,T*1A
$HEROT,-1.0,A*07
$PSAT,HPR,044556.90,161.56,-2.47,1.4,N*31
$GPGGA,044556.90,3101.7197914,N,12126.3598896,E,2,08,1.1,4.371,M,9.725,M,5.9,0129*79
$GPVTG,40.09,T,45.85,M,0.07,N,0.13,K,D*22
$HEHDT,161.56,T*1A
$HEROT,-1.2,A*05
$PSAT,HPR,044557.00,161.56,-2.38,1.5,N*30
$GPGGA,044557.00,3101.7197928,N,12126.3598904,E,2,08,1.1,4.374,M,9.725,M,6.0,0129*7B
$GPVTG,323.06,T,328.82,M,0.05,N,0.10,K,D*25
$HEHDT,161.56,T*1A
$HEROT,-1.2,A*05
$PSAT,HPR,044557.10,161.56,-2.37,1.5,N*3E
$GPGGA,044557.10,3101.7197926,N,12126.3598895,E,2,08,1.1,4.377,M,9.725,M,6.1,0129*7F
$GPVTG,238.74,T,244.50,M,0.12,N,0.22,K,D*28
$HEHDT,161.56,T*1A
$HEROT,-1.2,A*05
$PSAT,HPR,044557.20,161.56,-2.34,1.5,N*3E
$GPGGA,044557.20,3101.7197930,N,12126.3598904,E,2,08,1.1,4.374,M,9.725,M,6.2,0129*72
$GPVTG,34.91,T,40.67,M,0.04,N,0.08,K,D*20
$HEHDT,161.57,T*1B
$HEROT,-0.8,A*0E
$PSAT,HPR,044557.30,161.57,-2.41,1.5,N*3C
$GPGGA,044557.30,3101.7197934,N,12126.3598902,E,2,08,1.1,4.377,M,9.725,M,6.3,0129*73
$GPVTG,38.07,T,43.83,M,0.03,N,0.05,K,D*20
$HEHDT,161.57,T*1B
$HEROT,-0.9,A*0F
$PSAT,HPR,044557.40,161.57,-2.43,1.5,N*39
$GPGGA,044557.40,3101.7197935,N,12126.3598893,E,2,08,1.1,4.378,M,9.725,M,6.4,0129*74
$GPVTG,338.11,T,343.87,M,0.07,N,0.12,K,D*21
$HEHDT,161.57,T*1B
$HEROT,-0.9,A*0F
$PSAT,HPR,044557.50,161.57,-2.38,1.5,N*34
$GPGGA,044557.50,3101.7197942,N,12126.3598898,E,2,08,1.1,4.378,M,9.725,M,6.5,0129*7F
$GPVTG,291.66,T,297.42,M,0.03,N,0.05,K,D*20
$HEHDT,161.57,T*1B
$HEROT,-0.8,A*0E
$PSAT,HPR,044557.60,161.57,-2.37,1.5,N*38
$GPGGA,044557.60,3101.7197941,N,12126.3598889,E,2,08,1.1,4.380,M,9.725,M,6.6,0129*7B
$GPVTG,20.87,T,26.63,M,0.07,N,0.12,K,D*2E
$HEHDT,161.58,T*14
$HEROT,-0.9,A*0F
$PSAT,HPR,044557.70,161.58,-2.30,1.5,N*31
$GPGGA,044557.70,3101.7197941,N,12126.3598896,E,2,08,1.1,4.377,M,9.725,M,6.7,0129*7D
$GPVTG,223.03,T,228.79,M,0.03,N,0.06,K,D*25
$HEHDT,161.59,T*15
$HEROT,-0.8,A*0E
$PSAT,HPR,044557.80,161.59,-2.16,1.4,N*3A
$GPGGA,044557.80,3101.7197960,N,12126.3598904,E,2,08,1.1,4.380,M,9.725,M,6.8,0129*7C
$GPVTG,290.47,T,296.23,M,0.03,N,0.05,K,D*24
$HEHDT,161.59,T*15
$HEROT,-0.7,A*01
$PSAT,HPR,044557.90,161.59,-2.11,1.4,N*3C
$GPGGA,044557.90,3101.7197968,N,12126.3598905,E,2,08,1.1,4.379,M,9.725,M,6.9,0129*73
$GPVTG,219.27,T,225.03,M,0.07,N,0.12,K,D*2B
$HEHDT,161.60,T*1F
$HEROT,-0.7,A*01
$PSAT,HPR,044558.00,161.60,-2.00,1.4,N*30
$GPGGA,044558.00,3101.7197961,N,12126.3598899,E,2,08,1.1,4.380,M,9.725,M,7.0,0129*76
$GPVTG,132.90,T,138.67,M,0.03,N,0.06,K,D*21
$HEHDT,161.61,T*1E
$HEROT,-0.4,A*02
$PSAT,HPR,044558.10,161.61,-1.98,1.4,N*32
$GPGGA,044558.10,3101.7197959,N,12126.3598898,E,2,08,1.1,4.380,M,9.725,M,7.1,0129*7C
$GPVTG,345.83,T,351.59,M,0.03,N,0.06,K,D*21
$HEHDT,161.62,T*1D
$HEROT,-0.3,A*05
$PSAT,HPR,044558.20,161.62,-2.06,1.4,N*36
$GPGGA,044558.20,3101.7197950,N,12126.3598893,E,2,08,1.1,4.381,M,9.725,M,7.2,0129*7F
$GPVTG,235.24,T,241.00,M,0.09,N,0.16,K,D*2D
$HEHDT,161.62,T*1D
$HEROT,-0.2,A*04
$PSAT,HPR,044558.30,161.62,-2.19,1.4,N*39
$GPGGA,044558.30,3101.7197951,N,12126.3598897,E,2,08,1.1,4.380,M,9.725,M,7.3,0129*7B
$GPVTG,216.28,T,222.04,M,0.03,N,0.06,K,D*2A
$HEHDT,161.62,T*1D
$HEROT,-0.3,A*05
$PSAT,HPR,044558.40,161.62,-2.27,1.4,N*33
$GPGGA,044558.40,3101.7197947,N,12126.3598898,E,2,08,1.1,4.378,M,9.725,M,7.4,0129*74
$GPVTG,160.40,T,166.16,M,0.05,N,0.09,K,D*2F
$HEHDT,161.63,T*1C
$HEROT,-0.1,A*07
$PSAT,HPR,044558.50,161.63,-2.23,1.4,N*37
$GPGGA,044558.50,3101.7197946,N,12126.3598900,E,2,08,1.1,4.379,M,9.725,M,7.5,0129*74
$GPVTG,330.63,T,336.39,M,0.03,N,0.05,K,D*29
$HEHDT,161.63,T*1C
$HEROT,-0.0,A*06
$PSAT,HPR,044558.60,161.63,-2.21,1.4,N*36
$GPGGA,044558.60,3101.7197951,N,12126.3598893,E,2,08,1.1,4.385,M,9.725,M,7.6,0129*7A
$GPVTG,77.59,T,83.35,M,0.11,N,0.21,K,D*24
$HEHDT,161.63,T*1C
$HEROT,0.2,A*29
$PSAT,HPR,044558.70,161.63,-2.26,1.4,N*30
$GPGGA,044558.70,3101.7197950,N,12126.3598894,E,2,08,1.1,4.382,M,9.725,M,3.7,0129*7F
$GPVTG,193.04,T,198.80,M,0.08,N,0.16,K,D*2E
$HEHDT,161.63,T*1C
$HEROT,-0.0,A*06
$PSAT,HPR,044558.80,161.63,-2.29,1.4,N*30
$GPGGA,044558.80,3101.7197949,N,12126.3598891,E,2,08,1.1,4.383,M,9.725,M,3.8,0129*73
$GPVTG,356.79,T,2.56,M,0.13,N,0.24,K,D*2D
$HEHDT,161.63,T*1C
$HEROT,0.1,A*2A
$PSAT,HPR,044558.90,161.63,-2.24,1.4,N*3C
$GPGGA,044558.90,3101.7197943,N,12126.3598887,E,2,08,1.1,4.382,M,9.725,M,3.9,0129*7F
$GPVTG,32.98,T,38.74,M,0.15,N,0.28,K,D*20
$HEHDT,161.64,T*1B
$HEROT,0.2,A*29
$PSAT,HPR,044559.00,161.64,-2.31,1.4,N*37
$GPGGA,044559.00,3101.7197954,N,12126.3598892,E,2,08,1.1,4.387,M,9.725,M,4.0,0129*7E
$GPVTG,38.11,T,43.87,M,0.02,N,0.04,K,D*23
$HEHDT,161.65,T*1A
$HEROT,0.3,A*28
$PSAT,HPR,044559.10,161.65,-2.27,1.4,N*30
$GPGGA,044559.10,3101.7197953,N,12126.3598888,E,2,08,1.1,4.387,M,9.725,M,4.1,0129*72
$GPVTG,323.26,T,329.02,M,0.03,N,0.06,K,D*2F
$HEHDT,161.65,T*1A
$HEROT,0.2,A*29
$PSAT,HPR,044559.20,161.65,-2.19,1.4,N*3E
$GPGGA,044559.20,3101.7197959,N,12126.3598889,E,2,08,1.1,4.392,M,9.725,M,4.2,0129*7D
$GPVTG,327.38,T,333.14,M,0.06,N,0.10,K,D*2A
$HEHDT,161.66,T*19
$HEROT,0.4,A*2F
$PSAT,HPR,044559.30,161.66,-2.17,1.4,N*32
$GPGGA,044559.30,3101.7197956,N,12126.3598889,E,2,08,1.1,4.392,M,9.725,M,4.3,0129*72
$GPVTG,215.79,T,221.55,M,0.14,N,0.26,K,D*2E
$HEHDT,161.67,T*18
$HEROT,0.5,A*2E
$PSAT,HPR,044559.40,161.67,-2.17,1.4,N*34
$GPGGA,044559.40,3101.7197956,N,12126.3598881,E,2,08,1.1,4.391,M,9.725,M,4.4,0129*79
$GPVTG,306.47,T,312.23,M,0.03,N,0.05,K,D*27
$HEHDT,161.68,T*17
$HEROT,0.5,A*2E
$PSAT,HPR,044559.50,161.68,-2.21,1.4,N*3F
$GPGGA,044559.50,3101.7197960,N,12126.3598882,E,2,08,1.1,4.392,M,9.725,M,4.5,0129*7C
$GPVTG,329.32,T,335.08,M,0.03,N,0.06,K,D*27
$HEHDT,161.69,T*16
$HEROT,0.6,A*2D
$PSAT,HPR,044559.60,161.69,-2.22,1.4,N*3E
$GPGGA,044559.60,3101.7197966,N,12126.3598880,E,2,08,1.1,4.388,M,9.725,M,4.6,0129*73
$GPVTG,112.17,T,117.94,M,0.04,N,0.07,K,D*2B
$HEHDT,161.70,T*1E
$HEROT,0.7,A*2C
$PSAT,HPR,044559.70,161.70,-2.15,1.4,N*33
$GPGGA,044559.70,3101.7197971,N,12126.3598881,E,2,08,1.1,4.395,M,9.725,M,4.7,0129*78
$GPVTG,332.52,T,338.28,M,0.12,N,0.23,K,D*23
$HEHDT,161.71,T*1F
$HEROT,0.7,A*2C
$PSAT,HPR,044559.80,161.71,-2.07,1.4,N*3E
$GPGGA,044559.80,3101.7197977,N,12126.3598885,E,2,08,1.1,4.396,M,9.725,M,4.8,0129*79
$GPVTG,37.70,T,43.46,M,0.06,N,0.12,K,D*25
$HEHDT,161.71,T*1F
$HEROT,0.7,A*2C
$PSAT,HPR,044559.90,161.71,-2.08,1.4,N*30
$GPGGA,044559.90,3101.7197986,N,12126.3598887,E,2,08,1.1,4.394,M,9.725,M,4.9,0129*77
$GPVTG,204.43,T,210.20,M,0.03,N,0.05,K,D*20
$HEHDT,161.71,T*1F
$HEROT,0.5,A*2E
$PSAT,HPR,044600.00,161.71,-2.14,1.4,N*3B
$GPGGA,044600.00,3101.7197982,N,12126.3598886,E,2,08,1.1,4.395,M,9.725,M,5.0,0129*7D
$GPVTG,123.64,T,129.40,M,0.06,N,0.12,K,D*2F
$HEHDT,161.72,T*1C
$HEROT,0.5,A*2E
$PSAT,HPR,044600.10,161.72,-2.14,1.4,N*39
$GPGGA,044600.10,3101.7197976,N,12126.3598879,E,2,08,1.1,4.392,M,9.725,M,5.1,0129*71
$GPVTG,193.31,T,199.07,M,0.12,N,0.21,K,D*29
$HEHDT,161.73,T*1D
$HEROT,0.6,A*2D
$PSAT,HPR,044600.20,161.73,-2.18,1.4,N*37
$GPGGA,044600.20,3101.7197978,N,12126.3598879,E,2,08,1.1,4.393,M,9.725,M,5.2,0129*7E
$GPVTG,223.03,T,228.79,M,0.12,N,0.22,K,D*23
$HEHDT,161.73,T*1D
$HEROT,0.6,A*2D
$PSAT,HPR,044600.30,161.73,-2.17,1.5,N*38
$GPGGA,044600.30,3101.7197981,N,12126.3598876,E,2,08,1.1,4.395,M,9.725,M,5.3,0129*71
$GPVTG,26.35,T,32.11,M,0.10,N,0.18,K,D*2D
$HEHDT,161.75,T*1B
$HEROT,0.8,A*23
$PSAT,HPR,044600.40,161.75,-2.20,1.4,N*3C
$GPGGA,044600.40,3101.7197988,N,12126.3598881,E,2,08,1.1,4.395,M,9.725,M,5.4,0129*70
$GPVTG,140.91,T,146.67,M,0.08,N,0.15,K,D*25
$HEHDT,161.76,T*18
$HEROT,1.0,A*2A
$PSAT,HPR,044600.50,161.76,-2.28,1.4,N*36
$GPGGA,044600.50,3101.7197977,N,12126.3598874,E,2,08,1.1,4.394,M,9.725,M,5.5,0129*7B
$GPVTG,172.71,T,178.47,M,0.03,N,0.05,K,D*2F
$HEHDT,161.76,T*18
$HEROT,1.0,A*2A
$PSAT,HPR,044600.60,161.76,-2.32,1.5,N*3F
$GPGGA,044600.60,3101.7197985,N,12126.3598873,E,2,08,1.1,4.397,M,9.725,M,5.6,0129*72
$GPVTG,0.66,T,6.43,M,0.08,N,0.14,K,D*2A
$HEHDT,161.77,T*19
$HEROT,1.2,A*28
$PSAT,HPR,044600.70,161.77,-2.39,1.4,N*35
$GPGGA,044600.70,3101.7197975,N,12126.3598876,E,2,08,1.1,4.396,M,9.725,M,5.7,0129*79
$GPVTG,7.81,T,13.57,M,0.04,N,0.08,K,D*14
$HEHDT,161.78,T*16
$HEROT,1.2,A*28
$PSAT,HPR,044600.80,161.78,-2.38,1.4,N*34
$GPGGA,044600.80,3101.7197972,N,12126.3598873,E,2,08,1.1,4.398,M,9.725,M,5.8,0129*75
$GPVTG,2.43,T,8.20,M,0.06,N,0.12,K,D*2C
$HEHDT,161.78,T*16
$HEROT,1.2,A*28
$PSAT,HPR,044600.90,161.78,-2.36,1.4,N*3B
$GPGGA,044600.90,3101.7197984,N,12126.3598877,E,2,08,1.1,4.399,M,9.725,M,5.9,0129*79
$GPVTG,60.17,T,65.94,M,0.10,N,0.18,K,D*20
$HEHDT,161.79,T*17
$HEROT,1.1,A*2B
$PSAT,HPR,044601.00,161.79,-2.42,1.4,N*31
$GPGGA,044601.00,3101.7197979,N,12126.3598879,E,2,08,1.1,4.399,M,9.725,M,6.0,0129*77
$GPVTG,35.01,T,40.77,M,0.01,N,0.03,K,D*27
$HEHDT,161.79,T*17
$HEROT,1.1,A*2B
$PSAT,HPR,044601.10,161.79,-2.43,1.4,N*31
$GPGGA,044601.10,3101.7197983,N,12126.3598879,E,2,08,1.1,4.400,M,9.725,M,6.1,0129*75
$GPVTG,331.08,T,336.85,M,0.04,N,0.07,K,D*27
$HEHDT,161.79,T*17
$HEROT,0.9,A*22
$PSAT,HPR,044601.20,161.79,-2.52,1.4,N*32
$GPGGA,044601.20,3101.7197982,N,12126.3598882,E,2,08,1.1,4.400,M,9.725,M,6.2,0129*70
$GPVTG,294.96,T,300.73,M,0.01,N,0.02,K,D*22
$HEHDT,161.79,T*17
$HEROT,0.9,A*22
$PSAT,HPR,044601.30,161.79,-2.61,1.4,N*33
$GPGGA,044601.30,3101.7197970,N,12126.3598883,E,2,08,1.1,4.396,M,9.725,M,6.3,0129*74
$GPVTG,132.35,T,138.11,M,0.06,N,0.11,K,D*2C
$HEHDT,161.78,T*16
$HEROT,0.8,A*23
$PSAT,HPR,044601.40,161.78,-2.63,1.4,N*37
$GPGGA,044601.40,3101.7197976,N,12126.3598890,E,2,08,1.1,4.395,M,9.725,M,6.4,0129*73
$GPVTG,1.74,T,7.50,M,0.04,N,0.08,K,D*2A
$HEHDT,161.77,T*19
$HEROT,0.6,A*2D
$PSAT,HPR,044601.50,161.77,-2.68,1.4,N*32
$GPGGA,044601.50,3101.7197963,N,12126.3598870,E,2,08,1.1,4.399,M,9.725,M,6.5,0129*75
$GPVTG,359.53,T,5.29,M,0.11,N,0.19,K,D*29
$HEHDT,161.77,T*19
$HEROT,0.6,A*2D
$PSAT,HPR,044601.60,161.77,-2.79,1.4,N*31
$GPGGA,044601.60,3101.7197958,N,12126.3598877,E,2,08,1.1,4.394,M,9.725,M,6.6,0129*77
$GPVTG,226.08,T,231.84,M,0.04,N,0.08,K,D*28
$HEHDT,161.77,T*19
$HEROT,0.8,A*23
$PSAT,HPR,044601.70,161.77,-2.79,1.4,N*30
$GPGGA,044601.70,3101.7197968,N,12126.3598877,E,2,08,1.1,4.396,M,9.725,M,6.7,0129*76
$GPVTG,27.06,T,32.83,M,0.09,N,0.18,K,D*2F
$HEHDT,161.76,T*18
$HEROT,0.7,A*2C
$PSAT,HPR,044601.80,161.76,-2.84,1.4,N*3C
$GPGGA,044601.80,3101.7197969,N,12126.3598873,E,2,08,1.1,4.395,M,9.725,M,6.8,0129*70
$GPVTG,227.10,T,232.86,M,0.10,N,0.19,K,D*24
$HEHDT,161.75,T*1B
$HEROT,0.7,A*2C
$PSAT,HPR,044601.90,161.75,-2.86,1.4,N*3C
$GPGGA,044601.90,3101.7197966,N,12126.3598868,E,2,08,1.1,4.396,M,9.725,M,6.9,0129*76
$GPVTG,331.48,T,337.24,M,0.07,N,0.13,K,D*2F
$HEHDT,161.74,T*1A
$HEROT,0.6,A*2D
$PSAT,HPR,044602.00,161.74,-2.82,1.4,N*33
$GPGGA,044602.00,3101.7197967,N,12126.3598871,E,2,08,1.1,4.398,M,9.725,M,7.0,0129*73
$GPVTG,28.45,T,34.21,M,0.02,N,0.03,K,D*28
$HEHDT,161.74,T*1A
$HEROT,0.6,A*2D
$PSAT,HPR,044602.10,161.74,-2.79,1.4,N*36
$GPGGA,044602.10,3101.7197966,N,12126.3598874,E,2,08,1.1,4.397,M,9.725,M,7.1,0129*78
$GPVTG,50.91,T,56.67,M,0.07,N,0.14,K,D*2B
$HEHDT,161.73,T*1D
$HEROT,0.6,A*2D
$PSAT,HPR,044602.20,161.73,-2.68,1.4,N*32
$GPGGA,044602.20,3101.7197967,N,12126.3598877,E,2,08,1.1,4.398,M,9.725,M,7.2,0129*75
$GPVTG,20.57,T,26.33,M,0.05,N,0.10,K,D*26
$HEHDT,161.73,T*1D
$HEROT,0.6,A*2D
$PSAT,HPR,044602.30,161.73,-2.53,1.4,N*3B
$GPGGA,044602.30,3101.7197958,N,12126.3598867,E,2,08,1.1,4.398,M,9.725,M,7.3,0129*78
$GPVTG,274.57,T,280.33,M,0.05,N,0.10,K,D*2B
$HEHDT,161.73,T*1D
$HEROT,0.7,A*2C
$PSAT,HPR,044602.40,161.73,-2.60,1.4,N*3C
$GPGGA,044602.40,3101.7197973,N,12126.3598866,E,2,08,1.1,4.399,M,9.725,M,7.4,0129*71
$GPVTG,323.59,T,329.35,M,0.02,N,0.04,K,D*20
$HEHDT,161.73,T*1D
$HEROT,0.9,A*22
$PSAT,HPR,044602.50,161.73,-2.56,1.4,N*38
$GPGGA,044602.50,3101.7197968,N,12126.3598872,E,2,08,1.1,4.397,M,9.725,M,7.5,0129*70
$GPVTG,6.29,T,12.05,M,0.08,N,0.14,K,D*10
$HEHDT,161.73,T*1D
$HEROT,0.9,A*22
$PSAT,HPR,044602.60,161.73,-2.62,1.4,N*3C
$GPGGA,044602.60,3101.7197963,N,12126.3598860,E,2,08,1.1,4.400,M,9.725,M,7.6,0129*71
$GPVTG,156.11,T,161.87,M,0.03,N,0.05,K,D*2B
$HEHDT,161.72,T*1C
$HEROT,0.8,A*23
$PSAT,HPR,044602.70,161.72,-2.70,1.4,N*3F
$GPGGA,044602.70,3101.7197965,N,12126.3598862,E,2,08,1.1,4.402,M,9.725,M,5.7,0129*75
$GPVTG,60.83,T,66.59,M,0.04,N,0.08,K,D*2B
$HEHDT,161.72,T*1C
$HEROT,0.7,A*2C
$PSAT,HPR,044602.80,161.72,-2.60,1.4,N*31
$GPGGA,044602.80,3101.7197967,N,12126.3598870,E,2,08,1.1,4.401,M,9.725,M,5.8,0129*77
$GPVTG,352.43,T,358.20,M,0.08,N,0.15,K,D*25
$HEHDT,161.72,T*1C
$HEROT,0.7,A*2C
$PSAT,HPR,044602.90,161.72,-2.61,1.4,N*31
$GPGGA,044602.90,3101.7197957,N,12126.3598866,E,2,08,1.1,4.399,M,9.725,M,5.9,0129*75
$GPVTG,170.02,T,175.78,M,0.11,N,0.20,K,D*2C
$HEHDT,161.73,T*1D
$HEROT,0.7,A*2C
$PSAT,HPR,044603.00,161.73,-2.57,1.4,N*3D
$GPGGA,044603.00,3101.7197957,N,12126.3598865,E,2,08,1.1,4.401,M,9.725,M,6.0,0129*72
$GPVTG,31.37,T,37.14,M,0.11,N,0.20,K,D*23
$HEHDT,161.73,T*1D
$HEROT,0.6,A*2D
$PSAT,HPR,044603.10,161.73,-2.50,1.4,N*3B
$GPGGA,044603.10,3101.7197963,N,12126.3598869,E,2,08,1.1,4.401,M,9.725,M,6.1,0129*79
$GPVTG,182.60,T,188.36,M,0.06,N,0.11,K,D*29
$HEHDT,161.73,T*1D
$HEROT,0.5,A*2E
$PSAT,HPR,044603.20,161.73,-2.41,1.4,N*38
$GPGGA,044603.20,3101.7197956,N,12126.3598869,E,2,08,1.1,4.400,M,9.725,M,6.2,0129*7E
$GPVTG,204.40,T,210.17,M,0.06,N,0.12,K,D*24
$HEHDT,161.73,T*1D
$HEROT,0.5,A*2E
$PSAT,HPR,044603.30,161.73,-2.42,1.4,N*3A
$GPGGA,044603.30,3101.7197958,N,12126.3598859,E,2,08,1.1,4.400,M,9.725,M,6.3,0129*73
$GPVTG,279.92,T,285.68,M,0.05,N,0.08,K,D*2D
$HEHDT,161.73,T*1D
$HEROT,0.5,A*2E
$PSAT,HPR,044603.40,161.73,-2.40,1.4,N*3F
$GPGGA,044603.40,3101.7197958,N,12126.3598858,E,2,08,1.1,4.404,M,9.725,M,6.4,0129*76
$GPVTG,288.89,T,294.65,M,0.04,N,0.08,K,D*25
$HEHDT,161.73,T*1D
$HEROT,0.5,A*2E
$PSAT,HPR,044603.50,161.73,-2.26,1.4,N*3E
$GPGGA,044603.50,3101.7197967,N,12126.3598857,E,2,08,1.1,4.405,M,9.725,M,6.5,0129*74
$GPVTG,85.85,T,91.61,M,0.03,N,0.06,K,D*2C
$HEHDT,161.74,T*1A
$HEROT,0.6,A*2D
$PSAT,HPR,044603.60,161.74,-2.28,1.4,N*34
$GPGGA,044603.60,3101.7197964,N,12126.3598865,E,2,08,1.1,4.406,M,9.725,M,6.6,0129*75
$GPVTG,83.94,T,89.70,M,0.03,N,0.06,K,D*23
$HEHDT,161.74,T*1A
$HEROT,0.6,A*2D
$PSAT,HPR,044603.70,161.74,-2.21,1.4,N*3C
$GPGGA,044603.70,3101.7197975,N,12126.3598861,E,2,08,1.1,4.406,M,9.725,M,6.7,0129*71
$GPVTG,74.88,T,80.64,M,0.05,N,0.09,K,D*23
$HEHDT,161.75,T*1B
$HEROT,0.7,A*2C
$PSAT,HPR,044603.80,161.75,-2.11,1.4,N*31
$GPGGA,044603.80,3101.7197975,N,12126.3598862,E,2,08,1.1,4.412,M,9.725,M,6.8,0129*77
$GPVTG,218.33,T,224.10,M,0.04,N,0.07,K,D*2B
$HEHDT,161.75,T*1B
$HEROT,0.5,A*2E
$PSAT,HPR,044603.90,161.75,-2.12,1.4,N*33
$GPGGA,044603.90,3101.7197975,N,12126.3598859,E,2,08,1.1,4.412,M,9.725,M,6.9,0129*7F
$GPVTG,177.84,T,183.60,M,0.06,N,0.11,K,D*21
$HEHDT,161.77,T*19
$HEROT,0.6,A*2D
$PSAT,HPR,044604.00,161.77,-2.10,1.4,N*3D
$GPGGA,044604.00,3101.7197973,N,12126.3598861,E,2,08,1.1,4.409,M,9.725,M,7.0,0129*7E
$GPVTG,22.24,T,28.01,M,0.07,N,0.13,K,D*2E
$HEHDT,161.77,T*19
$HEROT,0.6,A*2D
$PSAT,HPR,044604.10,161.77,-2.10,1.4,N*3C
$GPGGA,044604.10,3101.7197968,N,12126.3598870,E,2,08,1.1,4.407,M,9.725,M,7.1,0129*7A
$GPVTG,5.22,T,10.98,M,0.07,N,0.13,K,D*16
$HEHDT,161.77,T*19
$HEROT,0.5,A*2E
$PSAT,HPR,044604.20,161.77,-2.04,1.4,N*3A
$GPGGA,044604.20,3101.7197971,N,12126.3598872,E,2,08,1.1,4.409,M,9.725,M,7.2,0129*7E
$GPVTG,328.60,T,334.36,M,0.09,N,0.17,K,D*27
$HEHDT,161.78,T*16
$HEROT,0.4,A*2F
$PSAT,HPR,044604.30,161.78,-2.11,1.4,N*30
$GPGGA,044604.30,3101.7197963,N,12126.3598873,E,2,08,1.1,4.407,M,9.725,M,7.3,0129*72
$GPVTG,28.88,T,34.64,M,0.01,N,0.03,K,D*2B
$HEHDT,161.77,T*19
$HEROT,0.2,A*29
$PSAT,HPR,044604.40,161.77,-2.20,1.4,N*3A
$GPGGA,044604.40,3101.7197965,N,12126.3598874,E,2,08,1.1,4.407,M,9.725,M,7.4,0129*73
$GPVTG,132.32,T,138.08,M,0.02,N,0.04,K,D*23
$HEHDT,161.78,T*16
$HEROT,0.2,A*29
$PSAT,HPR,044604.50,161.78,-2.30,1.4,N*35
$GPGGA,044604.50,3101.7197965,N,12126.3598879,E,2,08,1.1,4.409,M,9.725,M,7.5,0129*70
$GPVTG,116.13,T,121.89,M,0.13,N,0.25,K,D*24
$HEHDT,161.78,T*16
$HEROT,0.2,A*29
$PSAT,HPR,044604.60,161.78,-2.24,1.4,N*33
$GPGGA,044604.60,3101.7197968,N,12126.3598892,E,2,08,1.1,4.406,M,9.725,M,7.6,0129*77
$GPVTG,0.10,T,5.86,M,0.11,N,0.21,K,D*2F
$HEHDT,161.80,T*11
$HEROT,0.4,A*2F
$PSAT,HPR,044604.70,161.80,-2.28,1.5,N*38
$GPGGA,044604.70,3101.7197972,N,12126.3598893,E,2,08,1.1,4.411,M,9.725,M,3.7,0129*7F
$GPVTG,22.74,T,28.51,M,0.10,N,0.18,K,D*23
$HEHDT,161.81,T*10
$HEROT,0.5,A*2E
$PSAT,HPR,044604.80,161.81,-2.27,1.5,N*39
$GPGGA,044604.80,3101.7197974,N,12126.3598892,E,2,08,1.1,4.409,M,9.725,M,3.8,0129*71
$GPVTG,65.11,T,70.87,M,0.09,N,0.16,K,D*23
$HEHDT,161.81,T*10
$HEROT,0.5,A*2E
$PSAT,HPR,044604.90,161.81,-2.31,1.5,N*3F
$GPGGA,044604.90,3101.7197969,N,12126.3598901,E,2,08,1.1,4.408,M,9.725,M,3.9,0129*77
$GPVTG,47.63,T,53.39,M,0.02,N,0.04,K,D*2A
$HEHDT,161.81,T*10
$HEROT,0.3,A*28
$PSAT,HPR,044605.00,161.81,-2.36,1.5,N*30
$GPGGA,044605.00,3101.7197978,N,12126.3598905,E,2,08,1.1,4.414,M,9.725,M,4.0,0129*78
$GPVTG,13.48,T,19.25,M,0.10,N,0.19,K,D*2E
$HEHDT,161.81,T*10
$HEROT,0.3,A*28
$PSAT,HPR,044605.10,161.81,-2.37,1.4,N*31
$GPGGA,044605.10,3101.7197972,N,12126.3598938,E,2,08,1.1,4.411,M,9.725,M,4.1,0129*79
$GPVTG,147.44,T,153.20,M,0.15,N,0.29,K,D*2E
$HEHDT,161.82,T*13
$HEROT,0.3,A*28
$PSAT,HPR,044605.20,161.82,-2.44,1.4,N*35
$GPGGA,044605.20,3101.7197963,N,12126.3598952,E,2,08,1.1,4.412,M,9.725,M,4.2,0129*76
$GPVTG,129.45,T,135.21,M,0.09,N,0.16,K,D*27
$HEHDT,161.82,T*13
$HEROT,0.1,A*2A
$PSAT,HPR,044605.30,161.82,-2.41,1.4,N*31
$GPGGA,044605.30,3101.7197961,N,12126.3598972,E,2,08,1.1,4.412,M,9.725,M,4.3,0129*76
$GPVTG,73.98,T,79.75,M,0.07,N,0.14,K,D*2D
$HEHDT,161.82,T*13
$HEROT,0.0,A*2B
$PSAT,HPR,044605.40,161.82,-2.31,1.4,N*31
$GPGGA,044605.40,3101.7197938,N,12126.3598991,E,2,08,1.1,4.410,M,9.725,M,4.4,0129*75
$GPVTG,78.29,T,84.05,M,0.05,N,0.09,K,D*27
$HEHDT,161.83,T*12
$HEROT,-0.0,A*06
$PSAT,HPR,044605.50,161.83,-2.33,1.4,N*33
$GPGGA,044605.50,3101.7197940,N,12126.3598975,E,2,08,1.1,4.410,M,9.725,M,4.5,0129*70
$GPVTG,21.64,T,27.41,M,0.09,N,0.17,K,D*28
$HEHDT,161.82,T*13
$HEROT,-0.1,A*07
$PSAT,HPR,044605.60,161.82,-2.37,1.4,N*35
$GPGGA,044605.60,3101.7197951,N,12126.3598963,E,2,08,1.1,4.406,M,9.725,M,4.6,0129*70
$GPVTG,344.50,T,350.26,M,0.10,N,0.19,K,D*2B
$HEHDT,161.82,T*13
$HEROT,-0.1,A*07
$PSAT,HPR,044605.70,161.82,-2.49,1.4,N*3D
$GPGGA,044605.70,3101.7197934,N,12126.3598971,E,2,08,1.1,4.406,M,9.725,M,4.7,0129*70
$GPVTG,244.78,T,250.54,M,0.07,N,0.13,K,D*28
$HEHDT,161.81,T*10
$HEROT,-0.1,A*07
$PSAT,HPR,044605.80,161.81,-2.56,1.5,N*3E
$GPGGA,044605.80,3101.7197935,N,12126.3598972,E,2,08,1.1,4.403,M,9.725,M,4.8,0129*77
$GPVTG,232.22,T,237.98,M,0.13,N,0.24,K,D*26
$HEHDT,161.81,T*10
$HEROT,-0.1,A*07
$PSAT,HPR,044605.90,161.81,-2.59,1.5,N*30
$GPGGA,044605.90,3101.7197915,N,12126.3598984,E,2,08,1.1,4.410,M,9.725,M,4.9,0129*7E
$GPVTG,70.13,T,75.89,M,0.06,N,0.11,K,D*26
$HEHDT,161.80,T*11
$HEROT,-0.3,A*05
$PSAT,HPR,044606.00,161.80,-2.57,1.5,N*35
$GPGGA,044606.00,3101.7197886,N,12126.3599004,E,2,08,1.1,4.405,M,9.725,M,5.0,0129*73
$GPVTG,120.72,T,126.48,M,0.19,N,0.35,K,D*27
$HEHDT,161.79,T*17
$HEROT,-0.3,A*05
$PSAT,HPR,044606.10,161.79,-2.57,1.5,N*32
$GPGGA,044606.10,3101.7197851,N,12126.3599037,E,2,08,1.1,4.405,M,9.725,M,5.1,0129*79
$GPVTG,173.95,T,179.71,M,0.06,N,0.11,K,D*20
$HEHDT,161.78,T*16
$HEROT,-0.2,A*04
$PSAT,HPR,044606.20,161.78,-2.70,1.5,N*35
$GPGGA,044606.20,3101.7197832,N,12126.3599046,E,2,08,1.1,4.409,M,9.725,M,5.2,0129*76
$GPVTG,358.54,T,4.31,M,0.04,N,0.08,K,D*23
$HEHDT,161.76,T*18
$HEROT,-0.2,A*04
$PSAT,HPR,044606.30,161.76,-2.79,1.5,N*33
$GPGGA,044606.30,3101.7197828,N,12126.3599064,E,2,08,1.1,4.405,M,9.725,M,5.3,0129*71
$GPVTG,29.38,T,35.14,M,0.21,N,0.38,K,D*2D
$HEHDT,161.76,T*18
$HEROT,-0.1,A*07
$PSAT,HPR,044606.40,161.76,-2.95,1.5,N*36
$GPGGA,044606.40,3101.7197823,N,12126.3599075,E,2,08,1.1,4.408,M,9.725,M,5.4,0129*77
$GPVTG,265.30,T,271.06,M,0.07,N,0.12,K,D*22
$HEHDT,161.74,T*1A
$HEROT,-0.1,A*07
$PSAT,HPR,044606.50,161.74,-3.00,1.5,N*38
$GPGGA,044606.50,3101.7197788,N,12126.3599098,E,2,08,1.1,4.399,M,9.725,M,5.5,0129*75
$GPVTG,210.46,T,216.22,M,0.21,N,0.40,K,D*25
$HEHDT,161.72,T*1C
$HEROT,-0.1,A*07
$PSAT,HPR,044606.60,161.72,-3.19,1.5,N*35
$GPGGA,044606.60,3101.7197733,N,12126.3599158,E,2,08,1.1,4.399,M,9.725,M,5.6,0129*78
$GPVTG,97.02,T,102.79,M,0.13,N,0.24,K,D*13
$HEHDT,161.71,T*1F
$HEROT,-0.2,A*04
$PSAT,HPR,044606.70,161.71,-3.11,1.4,N*3E
$GPGGA,044606.70,3101.7197728,N,12126.3599215,E,2,08,1.1,4.392,M,9.725,M,5.7,0129*73
$GPVTG,2.22,T,7.98,M,0.18,N,0.33,K,D*2B
$HEHDT,161.71,T*1F
$HEROT,-0.1,A*07
$PSAT,HPR,044606.80,161.71,-2.90,1.4,N*39
$GPGGA,044606.80,3101.7197704,N,12126.3599226,E,2,08,1.1,4.388,M,9.725,M,5.8,0129*76
$GPVTG,184.21,T,189.98,M,0.23,N,0.43,K,D*2F
$HEHDT,161.72,T*1C
$HEROT,0.0,A*2B
$PSAT,HPR,044606.90,161.72,-2.75,1.4,N*30
$GPGGA,044606.90,3101.7197661,N,12126.3599227,E,2,08,1.1,4.374,M,9.725,M,5.9,0129*76
$GPVTG,171.06,T,176.82,M,0.13,N,0.25,K,D*28
$HEHDT,161.74,T*1A
$HEROT,-0.0,A*06
$PSAT,HPR,044607.00,161.74,-2.37,1.4,N*38
$GPGGA,044607.00,3101.7197644,N,12126.3599269,E,2,08,1.1,4.381,M,9.725,M,6.0,0129*73
$GPVTG,171.62,T,177.38,M,0.15,N,0.28,K,D*21
$HEHDT,161.76,T*18
$HEROT,-0.0,A*06
$PSAT,HPR,044607.10,161.76,-2.07,1.5,N*39
$GPGGA,044607.10,3101.7197608,N,12126.3599277,E,2,08,1.1,4.360,M,9.725,M,6.1,0129*7B
$GPVTG,253.92,T,259.68,M,0.13,N,0.25,K,D*2C
$HEHDT,161.75,T*1B
$HEROT,-0.1,A*07
$PSAT,HPR,044607.20,161.75,-1.82,1.4,N*36
$GPGGA,044607.20,3101.7197604,N,12126.3599256,E,2,08,1.1,4.349,M,9.725,M,6.2,0129*7F
$GPVTG,309.98,T,315.74,M,0.30,N,0.55,K,D*2A
$HEHDT,161.73,T*1D
$HEROT,-0.0,A*06
$PSAT,HPR,044607.30,161.73,-1.79,1.4,N*35
$GPGGA,044607.30,3101.7197682,N,12126.3599217,E,2,08,1.1,4.339,M,9.725,M,6.3,0129*73
$GPVTG,347.24,T,353.01,M,0.40,N,0.74,K,D*23
$HEHDT,161.65,T*1A
$HEROT,-0.5,A*03
$PSAT,HPR,044607.40,161.65,-1.44,1.4,N*3B
$GPGGA,044607.40,3101.7197715,N,12126.3599208,E,2,08,1.1,4.321,M,9.725,M,6.4,0129*7B
$GPVTG,336.40,T,342.16,M,0.03,N,0.06,K,D*23
$HEHDT,161.29,T*12
$HEROT,-9.5,A*0A
$PSAT,HPR,044607.50,161.29,-1.15,1.3,N*31
$GPGGA,044607.50,3101.7197703,N,12126.3599237,E,2,08,1.1,4.304,M,9.725,M,6.5,0129*77
$GPVTG,107.30,T,113.06,M,0.19,N,0.36,K,D*2B
$HEHDT,160.57,T*1A
$HEROT,-28.9,A*35
$PSAT,HPR,044607.60,160.57,-0.92,3.3,N*36
$GPGGA,044607.60,3101.7197672,N,12126.3599318,E,2,08,1.1,4.282,M,9.725,M,6.6,0129*73
$GPVTG,44.08,T,49.85,M,0.17,N,0.31,K,D*2A
$HEHDT,157.76,T*1D
$HEROT,-109.6,A*08
$PSAT,HPR,044607.70,157.76,-1.20,5.5,N*38
$GPGGA,044607.70,3101.7197664,N,12126.3599358,E,2,08,1.1,4.268,M,9.725,M,6.7,0129*74
$GPVTG,95.90,T,101.66,M,0.16,N,0.29,K,D*1F
$HEHDT,156.98,T*1C
$HEROT,-125.4,A*04
$PSAT,HPR,044607.80,156.98,-1.96,7.0,N*3C
$GPGGA,044607.80,3101.7197630,N,12126.3599334,E,2,08,1.1,4.261,M,9.725,M,6.8,0129*76
$GPVTG,182.34,T,188.10,M,0.04,N,0.07,K,D*29
$HEHDT,156.76,T*1C
$HEROT,-124.5,A*04
$PSAT,HPR,044607.90,156.76,-2.55,8.4,N*3A
$GPGGA,044607.90,3101.7197567,N,12126.3599359,E,2,08,1.1,4.248,M,9.725,M,6.9,0129*77
$GPVTG,170.48,T,176.24,M,0.24,N,0.44,K,D*2C
$HEHDT,155.69,T*11
$HEROT,-149.5,A*0F
$PSAT,HPR,044608.00,155.69,-3.07,9.6,N*34
$GPGGA,044608.00,3101.7197564,N,12126.3599393,E,2,08,1.1,4.239,M,9.725,M,7.0,0129*7A
$GPVTG,32.28,T,38.05,M,0.10,N,0.19,K,D*2A
$HEHDT,155.01,T*1F
$HEROT,-161.1,A*01
$PSAT,HPR,044608.10,155.01,-4.25,10.6,N*04
$GPGGA,044608.10,3101.7197511,N,12126.3599396,E,2,08,1.1,4.242,M,9.725,M,7.1,0129*71
$GPVTG,75.76,T,81.52,M,0.12,N,0.22,K,D*28
$HEHDT,155.72,T*1B
$HEROT,-132.0,A*06
$PSAT,HPR,044608.20,155.72,-5.35,9.5,N*38
$GPGGA,044608.20,3101.7197548,N,12126.3599423,E,2,08,1.1,4.245,M,9.725,M,7.2,0129*73
$GPVTG,335.40,T,341.16,M,0.44,N,0.82,K,D*2C
$HEHDT,157.29,T*17
$HEROT,-79.1,A*39
$PSAT,HPR,044608.30,157.29,-5.96,8.3,N*3B
$GPGGA,044608.30,3101.7197642,N,12126.3599363,E,2,08,1.1,4.247,M,9.725,M,7.3,0129*7B
$GPVTG,334.38,T,340.14,M,0.58,N,1.08,K,D*2F
$HEHDT,159.12,T*11
$HEROT,-18.1,A*3E
$PSAT,HPR,044608.40,159.12,-6.65,5.9,N*32
$GPGGA,044608.40,3101.7197675,N,12126.3599287,E,2,08,1.1,4.267,M,9.725,M,7.4,0129*76
$GPVTG,281.45,T,287.21,M,0.46,N,0.85,K,D*2D
$HEHDT,161.80,T*11
$HEROT,64.6,A*1F
$PSAT,HPR,044608.50,161.80,-6.72,2.4,N*3F
$GPGGA,044608.50,3101.7197640,N,12126.3599157,E,2,08,1.1,4.319,M,9.725,M,7.5,0129*76
$GPVTG,255.90,T,261.67,M,0.36,N,0.66,K,D*2C
$HEHDT,165.36,T*18
$HEROT,167.7,A*2C
$PSAT,HPR,044608.60,165.36,-6.07,-0.3,N*1F
$GPGGA,044608.60,3101.7197670,N,12126.3599104,E,2,08,1.1,4.408,M,9.725,M,7.6,0129*74
$GPVTG,272.44,T,278.20,M,0.34,N,0.63,K,D*2C
$HEHDT,168.94,T*1D
$HEROT,265.9,A*23
$PSAT,HPR,044608.70,168.94,-5.47,-1.8,N*16
$GPGGA,044608.70,3101.7197828,N,12126.3598914,E,2,08,1.1,4.452,M,9.725,M,5.7,0129*72
$GPVTG,313.73,T,319.49,M,1.25,N,2.32,K,D*20
$HEHDT,169.75,T*13
$HEROT,277.5,A*2C
$PSAT,HPR,044608.80,169.75,-5.23,-3.0,N*1F
$GPGGA,044608.80,3101.7198036,N,12126.3598518,E,2,08,1.1,4.536,M,9.725,M,5.8,0129*79
$GPVTG,303.40,T,309.16,M,1.86,N,3.45,K,D*22
$HEHDT,168.56,T*13
$HEROT,229.7,A*25
$PSAT,HPR,044608.90,168.56,-4.92,-4.3,N*11
$GPGGA,044608.90,3101.7198181,N,12126.3598238,E,2,08,1.1,4.615,M,9.725,M,5.9,0129*73
$GPVTG,278.24,T,284.00,M,0.96,N,1.78,K,D*22
$HEHDT,166.18,T*17
$HEROT,149.2,A*25
$PSAT,HPR,044609.00,166.18,-4.62,-5.3,N*13
$GPGGA,044609.00,3101.7198266,N,12126.3597896,E,2,07,1.1,4.695,M,9.725,M,6.0,0129*7D
$GPVTG,291.27,T,297.03,M,1.38,N,2.55,K,D*2E
$HEHDT,159.18,T*1B
$HEROT,-65.2,A*37
$PSAT,HPR,044609.10,159.18,-3.53,-6.8,N*13
$GPGGA,044609.10,3101.7198348,N,12126.3597744,E,2,07,1.2,4.777,M,9.725,M,6.1,0129*7E
$GPVTG,306.04,T,311.80,M,0.78,N,1.44,K,D*22
$HEHDT,149.73,T*17
$HEROT,-341.8,A*08
$PSAT,HPR,044609.20,149.73,-1.53,-8.1,N*19
$GPGGA,044609.20,3101.7198396,N,12126.3597551,E,2,07,1.2,4.836,M,9.725,M,6.2,0129*71
$GPVTG,277.66,T,283.43,M,0.88,N,1.62,K,D*2F
$HEHDT,144.51,T*1A
$HEROT,-478.9,A*04
$PSAT,HPR,044609.30,144.51,0.64,-8.6,N*3A
$GPGGA,044609.30,3101.7198340,N,12126.3597253,E,2,08,1.2,4.895,M,9.725,M,6.3,0129*79
$GPVTG,251.29,T,257.05,M,1.33,N,2.46,K,D*2F
$HEHDT,142.49,T*15
$HEROT,-513.8,A*09
$PSAT,HPR,044609.40,142.49,2.11,-7.3,N*38
$GPGGA,044609.40,3101.7198288,N,12126.3596976,E,2,08,1.1,4.960,M,9.725,M,6.4,0129*79
$GPVTG,267.73,T,273.49,M,0.87,N,1.61,K,D*23
$HEHDT,143.09,T*10
$HEROT,-469.3,A*0E
$PSAT,HPR,044609.50,143.09,2.80,-7.2,N*35
$GPGGA,044609.50,3101.7198309,N,12126.3596718,E,2,08,1.1,4.983,M,9.725,M,6.5,0129*7A
$GPVTG,277.93,T,283.70,M,0.73,N,1.35,K,D*23
$HEHDT,145.69,T*10
$HEROT,-368.3,A*08
$PSAT,HPR,044609.60,145.69,3.08,-6.9,N*3D
$GPGGA,044609.60,3101.7198363,N,12126.3596433,E,2,08,1.1,4.970,M,9.725,M,6.6,0129*70
$GPVTG,277.86,T,283.62,M,0.96,N,1.78,K,D*26
$HEHDT,149.46,T*11
$HEROT,-237.6,A*06
$PSAT,HPR,044609.70,149.46,3.34,-6.2,N*39
$GPGGA,044609.70,3101.7198400,N,12126.3596071,E,2,08,1.1,4.983,M,9.725,M,6.7,0129*7C
$GPVTG,270.66,T,276.42,M,1.45,N,2.69,K,D*2B
$HEHDT,152.94,T*14
$HEROT,-122.1,A*06
$PSAT,HPR,044609.80,152.94,3.85,-5.6,N*3E
$GPGGA,044609.80,3101.7198494,N,12126.3595624,E,2,08,1.1,4.993,M,9.725,M,6.8,0129*75
$GPVTG,280.84,T,286.60,M,1.24,N,2.30,K,D*2C
$HEHDT,154.50,T*1A
$HEROT,-68.9,A*31
$PSAT,HPR,044609.90,154.50,3.96,-4.6,N*32
$GPGGA,044609.90,3101.7198525,N,12126.3595262,E,2,08,1.1,5.020,M,9.725,M,6.9,0129*78
$GPVTG,261.34,T,267.10,M,1.11,N,2.06,K,D*23
$HEHDT,154.76,T*1E
$HEROT,-57.4,A*30
$PSAT,HPR,044610.00,154.76,4.07,-4.6,N*38
$GPGGA,044610.00,3101.7198504,N,12126.3594949,E,2,08,1.1,5.045,M,9.725,M,7.0,0129*72
$GPVTG,263.87,T,269.63,M,1.06,N,1.97,K,D*2E
$HEHDT,152.65,T*1A
$HEROT,-116.2,A*02
$PSAT,HPR,044610.10,152.65,3.89,-4.0,N*3A
$GPGGA,044610.10,3101.7198396,N,12126.3594664,E,2,08,1.1,5.094,M,9.725,M,7.1,0129*73
$GPVTG,252.36,T,258.12,M,1.31,N,2.42,K,D*2D
$HEHDT,150.98,T*1A
$HEROT,-158.3,A*09
$PSAT,HPR,044610.20,150.98,3.54,-2.7,N*38
$GPGGA,044610.20,3101.7198272,N,12126.3594376,E,2,08,1.1,5.123,M,9.725,M,7.2,0129*73
$GPVTG,251.78,T,257.54,M,1.11,N,2.05,K,D*28
$HEHDT,151.71,T*1C
$HEROT,-127.2,A*00
$PSAT,HPR,044610.30,151.71,2.89,-2.0,N*39
$GPGGA,044610.30,3101.7198113,N,12126.3594125,E,2,08,1.1,5.160,M,9.725,M,7.3,0129*74
$GPVTG,232.86,T,238.62,M,1.00,N,1.85,K,D*2B
$HEHDT,153.84,T*14
$HEROT,-56.1,A*34
$PSAT,HPR,044610.40,153.84,2.87,-1.7,N*3C
$GPGGA,044610.40,3101.7197987,N,12126.3593862,E,2,08,1.1,5.166,M,9.725,M,7.4,0129*75
$GPVTG,238.63,T,244.39,M,0.95,N,1.76,K,D*2E
$HEHDT,158.54,T*12
$HEROT,88.0,A*1B
$PSAT,HPR,044610.50,158.54,3.95,-1.5,N*3B
$GPGGA,044610.50,3101.7197825,N,12126.3593515,E,2,08,1.1,5.186,M,9.725,M,3.5,0129*7B
$GPVTG,228.34,T,234.10,M,1.25,N,2.31,K,D*2B
$HEHDT,166.59,T*12
$HEROT,323.5,A*2C
$PSAT,HPR,044610.60,166.59,6.03,-0.3,N*35
$GPGGA,044610.60,3101.7197637,N,12126.3593144,E,2,08,1.1,5.193,M,9.725,M,3.6,0129*72
$GPVTG,228.56,T,234.32,M,1.42,N,2.64,K,D*2E
$HEHDT,173.87,T*15
$HEROT,523.6,A*29
$PSAT,HPR,044610.70,173.87,8.66,0.4,N*14
$GPGGA,044610.70,3101.7197427,N,12126.3592726,E,2,08,1.1,5.197,M,9.725,M,3.7,0129*76
$GPVTG,236.54,T,242.31,M,1.75,N,3.25,K,D*21
$HEHDT,179.40,T*14
$HEROT,661.4,A*2E
$PSAT,HPR,044610.80,179.40,11.10,1.4,N*22
$GPGGA,044610.80,3101.7197192,N,12126.3592260,E,2,08,1.1,5.198,M,9.725,M,3.8,0129*75
$GPVTG,236.31,T,242.07,M,1.61,N,2.98,K,D*25
$HEHDT,183.54,T*14
$HEROT,751.6,A*2E
$PSAT,HPR,044610.90,183.54,12.45,2.3,N*24
$GPGGA,044610.90,3101.7196983,N,12126.3591725,E,2,08,1.1,5.211,M,9.725,M,3.9,0129*79
$GPVTG,235.41,T,241.17,M,1.61,N,2.99,K,D*22
$HEHDT,189.42,T*19
$HEROT,888.9,A*2A
$PSAT,HPR,044611.00,189.42,12.70,1.8,N*2F
$GPGGA,044611.00,3101.7196727,N,12126.3591193,E,2,08,1.1,5.211,M,9.725,M,4.0,0129*74
$GPVTG,235.73,T,241.49,M,1.75,N,3.24,K,D*2A
$HEHDT,198.27,T*1A
$HEROT,1107.1,A*1D
$PSAT,HPR,044611.10,198.27,12.19,1.7,N*2D
$GPGGA,044611.10,3101.7196545,N,12126.3590644,E,2,08,1.1,5.206,M,9.725,M,4.1,0129*78
$GPVTG,248.87,T,254.64,M,2.12,N,3.92,K,D*2F
$HEHDT,207.81,T*13
$HEROT,1334.9,A*17
$PSAT,HPR,044611.20,207.81,11.65,3.6,N*2C
$GPGGA,044611.20,3101.7196370,N,12126.3590021,E,2,08,1.1,5.203,M,9.725,M,4.2,0129*78
$GPVTG,248.90,T,254.66,M,2.00,N,3.70,K,D*24
$HEHDT,214.78,T*17
$HEROT,1475.4,A*18
$PSAT,HPR,044611.30,214.78,10.92,4.6,N*27
$GPGGA,044611.30,3101.7196158,N,12126.3589527,E,2,08,1.1,5.201,M,9.725,M,4.3,0129*79
$GPVTG,235.32,T,241.09,M,1.71,N,3.17,K,D*2F
$HEHDT,218.93,T*1E
$HEROT,1525.9,A*11
$PSAT,HPR,044611.40,218.93,10.30,3.8,N*28
$GPGGA,044611.40,3101.7195947,N,12126.3589052,E,2,08,1.1,5.207,M,9.725,M,4.4,0129*7D
$GPVTG,251.47,T,257.23,M,1.28,N,2.36,K,D*2E
$HEHDT,223.70,T*1B
$HEROT,1592.7,A*13
$PSAT,HPR,044611.50,223.70,10.09,3.6,N*28
$GPGGA,044611.50,3101.7195757,N,12126.3588624,E,2,08,1.1,5.223,M,9.725,M,4.5,0129*72
$GPVTG,231.30,T,237.07,M,1.50,N,2.77,K,D*22
$HEHDT,227.91,T*10
$HEROT,1638.8,A*1F
$PSAT,HPR,044611.60,227.91,9.85,3.6,N*1C
$GPGGA,044611.60,3101.7195530,N,12126.3588283,E,2,08,1.1,5.213,M,9.725,M,4.6,0129*7B
$GPVTG,222.73,T,228.49,M,1.34,N,2.48,K,D*2D
$HEHDT,229.78,T*19
$HEROT,1613.0,A*1E
$PSAT,HPR,044611.70,229.78,9.16,3.3,N*1B
$GPGGA,044611.70,3101.7195275,N,12126.3587937,E,2,08,1.1,5.236,M,9.725,M,4.7,0129*71
$GPVTG,223.80,T,229.57,M,1.39,N,2.58,K,D*22
$HEHDT,230.84,T*12
$HEROT,1565.3,A*1F
$PSAT,HPR,044611.80,230.84,8.45,1.3,N*1A
$GPGGA,044611.80,3101.7194964,N,12126.3587553,E,2,08,1.1,5.280,M,9.725,M,4.8,0129*78
$GPVTG,216.62,T,222.38,M,1.61,N,2.98,K,D*2B
$HEHDT,234.36,T*1F
$HEROT,1592.2,A*16
$PSAT,HPR,044611.90,234.36,8.09,-0.3,N*32
$GPGGA,044611.90,3101.7194686,N,12126.3587292,E,2,08,1.1,5.317,M,9.725,M,4.9,0129*7E
$GPVTG,216.28,T,222.04,M,1.34,N,2.49,K,D*26
$HEHDT,238.95,T*1A
$HEROT,1650.3,A*1A
$PSAT,HPR,044612.00,238.95,8.17,-0.3,N*32
$GPGGA,044612.00,3101.7194424,N,12126.3587011,E,2,08,1.1,5.356,M,9.725,M,5.0,0129*7A
$GPVTG,218.53,T,224.30,M,1.14,N,2.11,K,D*2A
$HEHDT,244.77,T*1D
$HEROT,1741.4,A*1C
$PSAT,HPR,044612.10,244.77,8.24,0.6,N*1C
$GPGGA,044612.10,3101.7194245,N,12126.3586852,E,2,08,1.1,5.416,M,9.725,M,5.1,0129*76
$GPVTG,199.60,T,205.37,M,0.71,N,1.31,K,D*27
$HEHDT,249.02,T*12
$HEROT,1782.0,A*17
$PSAT,HPR,044612.20,249.02,8.04,0.3,N*17
$GPGGA,044612.20,3101.7194030,N,12126.3586714,E,2,08,1.1,5.453,M,9.725,M,5.2,0129*7A
$GPVTG,203.95,T,209.71,M,0.67,N,1.25,K,D*21
$HEHDT,249.71,T*16
$HEROT,1714.5,A*1D
$PSAT,HPR,044612.30,249.71,7.52,-0.7,N*37
$GPGGA,044612.30,3101.7193882,N,12126.3586557,E,2,08,1.1,5.507,M,9.725,M,5.3,0129*79
$GPVTG,220.83,T,226.59,M,0.79,N,1.45,K,D*29
$HEHDT,249.38,T*1B
$HEROT,1620.0,A*1E
$PSAT,HPR,044612.40,249.38,6.78,-1.3,N*31
$GPGGA,044612.40,3101.7193764,N,12126.3586387,E,2,08,1.1,5.547,M,9.725,M,5.4,0129*71
$GPVTG,232.69,T,238.46,M,0.62,N,1.14,K,D*21
$HEHDT,249.42,T*16
$HEROT,1541.5,A*1F
$PSAT,HPR,044612.50,249.42,5.72,-1.1,N*36
$GPGGA,044612.50,3101.7193733,N,12126.3586229,E,2,08,1.1,5.578,M,9.725,M,5.5,0129*7A
$GPVTG,256.57,T,262.33,M,0.55,N,1.01,K,D*23
$HEHDT,249.82,T*1A
$HEROT,1477.8,A*16
$PSAT,HPR,044612.60,249.82,4.61,-0.6,N*3C
$GPGGA,044612.60,3101.7193709,N,12126.3586073,E,2,08,1.1,5.586,M,9.725,M,5.6,0129*7F
$GPVTG,251.34,T,257.10,M,0.57,N,1.06,K,D*23
$HEHDT,250.63,T*1D
$HEROT,1429.3,A*16
$PSAT,HPR,044612.70,250.63,3.84,0.1,N*1C
$GPGGA,044612.70,3101.7193651,N,12126.3585840,E,2,08,1.1,5.596,M,9.725,M,5.7,0129*79
$GPVTG,241.30,T,247.06,M,1.02,N,1.90,K,D*2E
$HEHDT,252.01,T*1B
$HEROT,1400.2,A*1C
$PSAT,HPR,044612.80,252.01,3.24,0.7,N*19
$GPGGA,044612.80,3101.7193554,N,12126.3585524,E,2,08,1.1,5.608,M,9.725,M,5.8,0129*74
$GPVTG,252.17,T,257.93,M,0.92,N,1.71,K,D*23
$HEHDT,253.33,T*1B
$HEROT,1370.8,A*16
$PSAT,HPR,044612.90,253.33,2.46,1.6,N*1D
$GPGGA,044612.90,3101.7193468,N,12126.3585181,E,2,08,1.1,5.607,M,9.725,M,5.9,0129*7E
$GPVTG,244.10,T,249.86,M,1.57,N,2.91,K,D*2D
$HEHDT,253.69,T*14
$HEROT,1314.6,A*1A
$PSAT,HPR,044613.00,253.69,2.18,1.7,N*10
$GPGGA,044613.00,3101.7193329,N,12126.3584734,E,2,08,1.1,5.585,M,9.725,M,6.0,0129*7E
$GPVTG,255.29,T,261.06,M,1.44,N,2.68,K,D*21
$HEHDT,253.28,T*11
$HEROT,1238.0,A*13
$PSAT,HPR,044613.10,253.28,1.98,1.6,N*1E
$GPGGA,044613.10,3101.7193226,N,12126.3584244,E,2,08,1.1,5.587,M,9.725,M,6.1,0129*70
$GPVTG,252.50,T,258.26,M,1.65,N,3.06,K,D*2A
$HEHDT,252.99,T*1A
$HEROT,1169.3,A*17
$PSAT,HPR,044613.20,252.99,1.78,1.3,N*1D
$GPGGA,044613.20,3101.7193079,N,12126.3583761,E,2,08,1.1,5.571,M,9.725,M,6.2,0129*74
$GPVTG,245.81,T,251.58,M,1.67,N,3.10,K,D*25
$HEHDT,253.89,T*1A
$HEROT,1138.4,A*14
$PSAT,HPR,044613.30,253.89,1.39,1.0,N*1A
$GPGGA,044613.30,3101.7192889,N,12126.3583307,E,2,08,1.1,5.577,M,9.725,M,6.3,0129*70
$GPVTG,241.14,T,246.90,M,1.29,N,2.39,K,D*2F
$HEHDT,255.14,T*18
$HEROT,1119.6,A*15
$PSAT,HPR,044613.40,255.14,0.74,0.6,N*10
$GPGGA,044613.40,3101.7192782,N,12126.3582904,E,2,08,1.1,5.586,M,9.725,M,6.4,0129*72
$GPVTG,262.01,T,267.78,M,1.17,N,2.17,K,D*2E
$HEHDT,256.53,T*18
$HEROT,1106.3,A*1E
$PSAT,HPR,044613.50,256.53,0.31,1.2,N*15
$GPGGA,044613.50,3101.7192658,N,12126.3582513,E,2,08,1.1,5.563,M,9.725,M,6.5,0129*75
$GPVTG,241.43,T,247.19,M,1.25,N,2.32,K,D*2A
$HEHDT,258.00,T*10
$HEROT,1096.4,A*11
$PSAT,HPR,044613.60,258.00,-0.09,0.9,N*32
$GPGGA,044613.60,3101.7192417,N,12126.3582084,E,2,08,1.1,5.558,M,9.725,M,6.6,0129*7F
$GPVTG,236.83,T,242.59,M,1.53,N,2.83,K,D*2C
$HEHDT,259.40,T*15
$HEROT,1084.4,A*12
$PSAT,HPR,044613.70,259.40,-0.19,0.1,N*3F
$GPGGA,044613.70,3101.7192229,N,12126.3581692,E,2,08,1.1,5.543,M,9.725,M,6.7,0129*7C
$GPVTG,242.37,T,248.14,M,1.40,N,2.59,K,D*26
$HEHDT,260.22,T*1B
$HEROT,1056.1,A*18
$PSAT,HPR,044613.80,260.22,0.14,-1.1,N*32
$GPGGA,044613.80,3101.7192016,N,12126.3581276,E,2,08,1.1,5.529,M,9.725,M,6.8,0129*70
$GPVTG,240.16,T,245.93,M,1.39,N,2.57,K,D*25
$HEHDT,260.38,T*10
$HEROT,1009.3,A*10
$PSAT,HPR,044613.90,260.38,0.56,-1.8,N*37
$GPGGA,044613.90,3101.7191862,N,12126.3580921,E,2,08,1.1,5.508,M,9.725,M,6.9,0129*73
$GPVTG,244.27,T,250.03,M,1.17,N,2.17,K,D*26
$HEHDT,260.29,T*10
$HEROT,957.6,A*26
$PSAT,HPR,044614.00,260.29,0.82,-2.0,N*3B
$GPGGA,044614.00,3101.7191747,N,12126.3580533,E,2,08,1.1,5.496,M,9.725,M,7.0,0129*74
$GPVTG,254.26,T,260.02,M,1.27,N,2.35,K,D*27
$HEHDT,260.01,T*1A
$HEROT,902.9,A*29
$PSAT,HPR,044614.10,260.01,1.00,-2.0,N*3B
$GPGGA,044614.10,3101.7191598,N,12126.3580102,E,2,08,1.1,5.456,M,9.725,M,7.1,0129*7E
$GPVTG,241.21,T,246.98,M,1.83,N,3.39,K,D*20
$HEHDT,259.23,T*10
$HEROT,836.3,A*25
$PSAT,HPR,044614.20,259.23,1.35,-2.5,N*31
$GPGGA,044614.20,3101.7191365,N,12126.3579586,E,2,08,1.1,5.418,M,9.725,M,7.2,0129*7E
$GPVTG,242.19,T,247.95,M,1.72,N,3.18,K,D*29
$HEHDT,258.19,T*18
$HEROT,765.3,A*2C
$PSAT,HPR,044614.30,258.19,1.80,-2.8,N*3B
$GPGGA,044614.30,3101.7191162,N,12126.3579115,E,2,08,1.1,5.390,M,9.725,M,7.3,0129*72
$GPVTG,242.15,T,247.92,M,1.62,N,3.01,K,D*2B
$HEHDT,256.74,T*1D
$HEROT,685.6,A*26
$PSAT,HPR,044614.40,256.74,2.44,-2.3,N*39
$GPGGA,044614.40,3101.7190937,N,12126.3578624,E,2,08,1.1,5.359,M,9.725,M,7.4,0129*7A
$GPVTG,241.49,T,247.26,M,1.79,N,3.31,K,D*27
$HEHDT,256.31,T*1C
$HEROT,639.8,A*2F
$PSAT,HPR,044614.50,256.31,2.72,-2.3,N*3C
$GPGGA,044614.50,3101.7190741,N,12126.3578184,E,2,08,1.1,5.329,M,9.725,M,7.5,0129*7F
$GPVTG,239.08,T,244.84,M,1.88,N,3.49,K,D*27
$HEHDT,256.64,T*1C
$HEROT,618.8,A*2C
$PSAT,HPR,044614.60,256.64,2.73,-2.1,N*3C
$GPGGA,044614.60,3101.7190569,N,12126.3577827,E,2,08,1.1,5.287,M,9.725,M,7.6,0129*7D
$GPVTG,248.36,T,254.12,M,1.11,N,2.06,K,D*28
$HEHDT,258.89,T*11
$HEROT,655.9,A*24
$PSAT,HPR,044614.70,258.89,2.57,-1.5,N*31
$GPGGA,044614.70,3101.7190424,N,12126.3577480,E,2,08,1.1,5.256,M,9.725,M,5.7,0129*7A
$GPVTG,227.97,T,233.73,M,1.26,N,2.33,K,D*2E
$HEHDT,262.31,T*1B
$HEROT,725.2,A*29
$PSAT,HPR,044614.80,262.31,2.48,-1.2,N*3D
$GPGGA,044614.80,3101.7190199,N,12126.3577351,E,2,08,1.1,5.243,M,9.725,M,5.8,0129*76
$GPVTG,217.39,T,223.15,M,0.72,N,1.33,K,D*2B
$HEHDT,266.42,T*1B
$HEROT,811.9,A*2A
$PSAT,HPR,044614.90,266.42,2.80,-1.4,N*3E
$GPGGA,044614.90,3101.7189928,N,12126.3576922,E,2,08,1.1,5.248,M,9.725,M,5.9,0129*78
$GPVTG,237.58,T,243.35,M,1.79,N,3.31,K,D*20
$HEHDT,269.98,T*13
$HEROT,878.1,A*2D
$PSAT,HPR,044615.00,269.98,2.52,-2.0,N*36
$GPGGA,044615.00,3101.7189756,N,12126.3576592,E,2,08,1.1,5.180,M,9.725,M,6.0,0129*7D
$GPVTG,238.63,T,244.39,M,1.41,N,2.60,K,D*22
$HEHDT,273.31,T*1B
$HEROT,934.7,A*22
$PSAT,HPR,044615.10,273.31,2.61,-3.7,N*39
$GPGGA,044615.10,3101.7189461,N,12126.3576160,E,2,08,1.1,5.166,M,9.725,M,6.1,0129*7B
$GPVTG,229.20,T,234.96,M,1.88,N,3.48,K,D*29
$HEHDT,275.99,T*1F
$HEROT,969.6,A*2B
$PSAT,HPR,044615.20,275.99,2.93,-3.5,N*31
$GPGGA,044615.20,3101.7189306,N,12126.3575917,E,2,08,1.1,5.149,M,9.725,M,6.2,0129*7B
$GPVTG,228.10,T,233.86,M,0.69,N,1.29,K,D*26
$HEHDT,278.75,T*10
$HEROT,1006.6,A*1A
$PSAT,HPR,044615.30,278.75,3.18,-3.2,N*3A
$GPGGA,044615.30,3101.7189151,N,12126.3575658,E,2,08,1.1,5.155,M,9.725,M,6.3,0129*72
$GPVTG,240.28,T,246.04,M,1.31,N,2.43,K,D*28
$HEHDT,282.12,T*14
$HEROT,1057.5,A*1D
$PSAT,HPR,044615.40,282.12,3.23,-3.0,N*33
$GPGGA,044615.40,3101.7188826,N,12126.3575337,E,2,08,1.1,5.136,M,9.725,M,6.4,0129*73
$GPVTG,225.56,T,231.33,M,1.50,N,2.77,K,D*26
$HEHDT,285.53,T*16
$HEROT,1105.6,A*18
$PSAT,HPR,044615.50,285.53,2.77,-2.3,N*32
$GPGGA,044615.50,3101.7188646,N,12126.3575074,E,2,08,1.1,5.113,M,9.725,M,6.5,0129*78
$GPVTG,255.82,T,261.58,M,0.78,N,1.45,K,D*29
$HEHDT,287.64,T*10
$HEROT,1112.0,A*18
$PSAT,HPR,044615.60,287.64,0.93,-1.6,N*39
$GPGGA,044615.60,3101.7188493,N,12126.3574762,E,2,08,1.1,5.110,M,9.725,M,6.6,0129*70
$GPVTG,239.00,T,244.76,M,1.36,N,2.53,K,D*2D
$HEHDT,289.24,T*1A
$HEROT,1100.8,A*13
$PSAT,HPR,044615.70,289.24,-2.23,-2.4,N*17
$GPGGA,044615.70,3101.7188356,N,12126.3574623,E,2,08,1.1,5.092,M,9.725,M,6.7,0129*71
$GPVTG,243.21,T,248.98,M,0.67,N,1.24,K,D*29
$HEHDT,290.88,T*14
$HEROT,1094.3,A*14
$PSAT,HPR,044615.80,290.88,1.4,-3.8,G*09
$GPGGA,044615.80,3101.7188204,N,12126.3574461,E,2,08,1.1,5.067,M,9.725,M,6.8,0129*79
$GPVTG,239.07,T,244.84,M,0.53,N,0.97,K,D*2F
$HEHDT,293.05,T*12
$HEROT,1103.7,A*1F
$PSAT,HPR,044615.90,293.05,0.0,-5.2,G*07
$GPGGA,044615.90,3101.7188095,N,12126.3574407,E,2,07,1.2,5.043,M,9.725,M,6.9,0129*79
$GPVTG,204.04,T,209.80,M,0.37,N,0.68,K,D*2D
$HEHDT,295.05,T*14
$HEROT,1107.9,A*15
$PSAT,HPR,044616.00,295.05,-1.5,-5.9,G*29
$GPGGA,044616.00,3101.7187984,N,12126.3574384,E,2,06,1.2,5.021,M,9.725,M,7.0,0129*74
$GPVTG,239.88,T,245.64,M,0.30,N,0.56,K,D*2F
$HEHDT,298.12,T*1F
$HEROT,1143.3,A*1F
$PSAT,HPR,044616.10,298.12,-3.2,-6.8,G*24
$GPGGA,044616.10,3101.7187982,N,12126.3574380,E,2,06,1.6,5.016,M,9.725,M,7.1,0129*76
$GPVTG,350.08,T,355.85,M,0.30,N,0.55,K,D*25
$HEHDT,299.32,T*1C
$HEROT,1121.4,A*1C
$PSAT,HPR,044616.20,299.32,-3.4,-5.7,G*2E
$GPGGA,044616.20,3101.7187948,N,12126.3574345,E,2,05,7.3,5.005,M,9.725,M,7.2,0129*7B
$GPVTG,243.82,T,249.58,M,0.35,N,0.64,K,D*2F
$HEHDT,300.25,T*1B
$HEROT,1092.9,A*18
$PSAT,HPR,044616.30,300.25,-4.0,-5.7,G*2B
$GPGGA,044616.30,3101.7187858,N,12126.3574325,E,2,05,7.3,5.007,M,9.725,M,7.3,0129*7F
$GPVTG,230.79,T,236.55,M,0.49,N,0.91,K,D*2B
$HEHDT,302.22,T*1E
$HEROT,1096.6,A*13
$PSAT,HPR,044616.40,302.22,-4.6,-4.9,G*20
$GPGGA,044616.40,3101.7187805,N,12126.3574349,E,2,05,7.3,5.005,M,9.725,M,7.4,0129*7F
$GPVTG,271.30,T,277.06,M,0.10,N,0.19,K,D*2C
$HEHDT,304.11,T*18
$HEROT,1097.6,A*12
$PSAT,HPR,044616.50,304.11,-4.9,-4.4,G*25
$GPGGA,044616.50,3101.7187789,N,12126.3574443,E,2,05,7.3,5.020,M,9.725,M,3.5,0129*7A
$GPVTG,259.78,T,265.54,M,0.16,N,0.29,K,D*2B
$HEHDT,307.46,T*19
$HEROT,1142.1,A*1C
$PSAT,HPR,044616.60,307.46,-5.0,-4.5,G*2E
$GPGGA,044616.60,3101.7187684,N,12126.3574414,E,2,05,7.3,4.991,M,9.725,M,3.6,0129*76
$GPVTG,180.70,T,186.46,M,0.24,N,0.44,K,D*23
$HEHDT,310.62,T*19
$HEROT,1178.5,A*11
$PSAT,HPR,044616.70,310.62,-5.0,-4.7,G*2D
$GPGGA,044616.70,3101.7187577,N,12126.3574429,E,2,05,7.3,4.970,M,9.725,M,3.7,0129*78
$GPVTG,206.89,T,212.65,M,0.59,N,1.09,K,D*25
$HEHDT,312.35,T*19
$HEROT,1170.9,A*15
$PSAT,HPR,044616.80,312.35,-4.9,-4.5,G*28
$GPGGA,044616.80,3101.7187505,N,12126.3574435,E,2,05,7.3,4.959,M,9.725,M,3.8,0129*7B
$GPVTG,294.16,T,299.92,M,0.21,N,0.39,K,D*2E
$HEHDT,314.72,T*1C
$HEROT,1182.7,A*16
$PSAT,HPR,044616.90,314.72,-4.6,-3.8,G*29
$GPGGA,044616.90,3101.7187467,N,12126.3574439,E,2,05,7.3,4.954,M,9.725,M,3.9,0129*7F
$GPVTG,236.02,T,241.79,M,0.56,N,1.04,K,D*2C
$HEHDT,317.36,T*1F
$HEROT,1201.5,A*1C
$PSAT,HPR,044617.00,317.36,-4.3,-3.9,G*26
$GPGGA,044617.00,3101.7187365,N,12126.3574413,E,2,05,7.3,4.958,M,9.725,M,4.0,0129*78
$GPVTG,217.11,T,222.88,M,0.29,N,0.54,K,D*2A
$HEHDT,319.49,T*19
$HEROT,1204.5,A*19
$PSAT,HPR,044617.10,319.49,-3.9,-4.1,G*23
$GPGGA,044617.10,3101.7187303,N,12126.3574370,E,2,05,7.3,4.957,M,9.725,M,4.1,0129*75
$GPVTG,257.19,T,262.95,M,0.55,N,1.01,K,D*24
$HEHDT,321.11,T*1F
$HEROT,1192.3,A*13
$PSAT,HPR,044617.20,321.11,-3.8,-3.7,G*26
$GPGGA,044617.20,3101.7187308,N,12126.3574384,E,2,05,7.3,4.957,M,9.725,M,4.2,0129*75
$GPVTG,356.53,T,2.29,M,0.16,N,0.31,K,D*2C
$HEHDT,322.29,T*17
$HEROT,1166.1,A*1A
$PSAT,HPR,044617.30,322.29,-17.31,-3.5,N*2B
$GPGGA,044617.30,3101.7187307,N,12126.3574390,E,2,05,7.3,4.945,M,9.725,M,4.3,0129*7C
$GPVTG,8.30,T,14.06,M,0.22,N,0.41,K,D*1B
$HEHDT,323.12,T*1E
$HEROT,1128.4,A*15
$PSAT,HPR,044617.40,323.12,-17.84,-3.0,N*2E
$GPGGA,044617.40,3101.7187293,N,12126.3574386,E,2,05,7.3,4.917,M,9.725,M,4.4,0129*70
$GPVTG,192.49,T,198.25,M,0.37,N,0.69,K,D*2D
$HEHDT,322.35,T*1A
$HEROT,1044.0,A*1A
$PSAT,HPR,044617.50,322.35,-18.07,-2.7,N*29
$GPGGA,044617.50,3101.7187231,N,12126.3574292,E,2,05,7.3,4.839,M,9.725,M,4.5,0129*71
$GPVTG,206.48,T,212.24,M,0.24,N,0.45,K,D*2E
$HEHDT,319.95,T*18
$HEROT,915.9,A*2F
$PSAT,HPR,044617.60,319.95,-18.47,-2.7,N*2C
$GPGGA,044617.60,3101.7187225,N,12126.3574357,E,2,05,7.3,4.809,M,9.725,M,4.6,0129*7F
$GPVTG,49.39,T,55.15,M,0.05,N,0.09,K,D*29
$HEHDT,315.83,T*13
$HEROT,746.8,A*26
$PSAT,HPR,044617.70,315.83,-4.6,-2.7,G*27
$GPGGA,044617.70,3101.7187166,N,12126.3574489,E,2,05,7.3,4.772,M,9.725,M,4.7,0129*7C
$GPVTG,134.77,T,140.53,M,0.75,N,1.38,K,D*2B
$HEHDT,312.60,T*19
$HEROT,613.8,A*27
$PSAT,HPR,044617.80,312.60,-17.45,-2.7,N*2E
$GPGGA,044617.80,3101.7187001,N,12126.3574521,E,2,05,7.3,4.723,M,9.725,M,4.8,0129*7B
$GPVTG,184.09,T,189.85,M,0.75,N,1.39,K,D*26
$HEHDT,310.30,T*1E
$HEROT,514.3,A*28
$PSAT,HPR,044617.90,310.30,-17.17,-2.0,N*28
$GPGGA,044617.90,3101.7186815,N,12126.3574379,E,2,05,7.3,4.663,M,9.725,M,4.9,0129*79
$GPVTG,216.74,T,222.50,M,0.58,N,1.08,K,D*23
$HEHDT,306.90,T*13
$HEROT,383.7,A*24
$PSAT,HPR,044618.00,306.90,-18.20,-2.0,N*28
$GPGGA,044618.00,3101.7186784,N,12126.3574461,E,2,05,7.3,4.669,M,9.725,M,5.0,0129*74
$GPVTG,217.40,T,223.16,M,0.53,N,0.98,K,D*25
$HEHDT,302.24,T*18
$HEROT,224.4,A*2B
$PSAT,HPR,044618.10,302.24,-1.6,-1.9,G*2D
$GPGGA,044618.10,3101.7186535,N,12126.3574371,E,2,05,7.3,4.652,M,9.725,M,5.1,0129*72
$GPVTG,197.61,T,203.37,M,1.58,N,2.93,K,D*2F
$HEHDT,297.78,T*1C
$HEROT,80.8,A*1B
$PSAT,HPR,044618.20,297.78,-0.0,-1.9,G*2D
$GPGGA,044618.20,3101.7186120,N,12126.3574026,E,2,05,7.3,4.593,M,9.725,M,5.2,0129*7D
$GPVTG,215.66,T,221.43,M,1.28,N,2.36,K,D*2A
$HEHDT,293.33,T*17
$HEROT,-55.1,A*37
$PSAT,HPR,044618.30,293.33,2.0,-1.2,G*03
$GPGGA,044618.30,3101.7186048,N,12126.3573993,E,2,05,7.3,4.597,M,9.725,M,5.3,0129*76
$GPVTG,249.36,T,255.12,M,0.92,N,1.71,K,D*21
$HEHDT,289.52,T*1B
$HEROT,-166.0,A*07
$PSAT,HPR,044618.40,289.52,4.6,-1.8,G*02
$GPGGA,044618.40,3101.7186095,N,12126.3573987,E,2,05,7.3,4.603,M,9.725,M,5.4,0129*7D
$GPVTG,237.18,T,242.94,M,1.01,N,1.86,K,D*2F
$HEHDT,284.93,T*1B
$HEROT,-294.0,A*09
$PSAT,HPR,044618.50,284.93,6.3,-3.5,G*0B
$GPGGA,044618.50,3101.7186083,N,12126.3573796,E,2,05,7.3,4.560,M,9.725,M,5.5,0129*72
$GPVTG,250.43,T,256.19,M,0.59,N,1.09,K,D*2B
$HEHDT,281.89,T*15
$HEROT,-369.8,A*02
$PSAT,HPR,044618.60,281.89,7.5,-4.8,G*0B
$GPGGA,044618.60,3101.7186213,N,12126.3573724,E,2,05,7.3,4.523,M,9.725,M,5.6,0129*77
$GPVTG,273.36,T,279.12,M,0.97,N,1.80,K,D*2D
$HEHDT,279.35,T*15
$HEROT,-427.1,A*06
$PSAT,HPR,044618.70,279.35,8.1,-5.1,G*09
$GPGGA,044618.70,3101.7186283,N,12126.3573421,E,2,05,7.3,4.482,M,9.725,M,5.7,0129*72
$GPVTG,269.00,T,274.76,M,1.14,N,2.12,K,D*2E
$HEHDT,277.68,T*13
$HEROT,-456.1,A*00
$PSAT,HPR,044618.80,277.68,8.0,-5.6,G*06
$GPGGA,044618.80,3101.7186483,N,12126.3573488,E,2,05,7.3,4.553,M,9.725,M,5.8,0129*7A
$GPVTG,259.92,T,265.68,M,1.02,N,1.89,K,D*2F
$HEHDT,274.90,T*17
$HEROT,-516.4,A*00
$PSAT,HPR,044618.90,274.90,7.5,-6.0,G*0C
$GPGGA,044618.90,3101.7186586,N,12126.3573458,E,2,05,7.3,4.577,M,9.725,M,5.9,0129*75
$GPVTG,271.11,T,276.87,M,0.51,N,0.94,K,D*27
$HEHDT,272.20,T*1A
$HEROT,-571.0,A*05
$PSAT,HPR,044619.00,272.20,7.2,-6.2,G*0C
$GPGGA,044619.00,3101.7186595,N,12126.3573427,E,2,05,7.3,4.551,M,9.725,M,6.0,0129*79
$GPVTG,245.70,T,251.46,M,0.76,N,1.41,K,D*23
$HEHDT,271.69,T*14
$HEROT,-558.3,A*0D
$PSAT,HPR,044619.10,271.69,6.4,-6.7,G*01
$GPGGA,044619.10,3101.7186626,N,12126.3573571,E,2,05,7.3,4.553,M,9.725,M,6.1,0129*72
$GPVTG,217.32,T,223.08,M,0.72,N,1.33,K,D*2C
$HEHDT,270.97,T*14
$HEROT,-552.5,A*01
$PSAT,HPR,044619.20,270.97,5.4,-7.4,G*03
$GPGGA,044619.20,3101.7186457,N,12126.3573445,E,2,05,7.3,4.494,M,9.725,M,6.2,0129*7A
$GPVTG,193.16,T,198.93,M,0.51,N,0.94,K,D*29
$HEHDT,270.08,T*12
$HEROT,-551.9,A*0E
$PSAT,HPR,044619.30,270.08,4.6,-7.7,G*04
$GPGGA,044619.30,3101.7186383,N,12126.3573499,E,2,05,7.3,4.519,M,9.725,M,6.3,0129*71
$GPVTG,199.17,T,204.93,M,0.87,N,1.61,K,D*24
$HEHDT,269.25,T*15
$HEROT,-549.7,A*09
$PSAT,HPR,044619.40,269.25,3.8,-7.8,G*02
$GPGGA,044619.40,3101.7186291,N,12126.3573530,E,2,05,7.3,4.549,M,9.725,M,6.4,0129*74
$GPVTG,288.91,T,294.67,M,0.22,N,0.40,K,D*26
$HEHDT,268.78,T*1C
$HEROT,-536.8,A*0E
$PSAT,HPR,044619.50,268.78,2.7,-8.6,G*05
$GPGGA,044619.50,3101.7186160,N,12126.3573467,E,2,05,7.3,4.527,M,9.725,M,6.5,0129*72
$GPVTG,173.58,T,179.34,M,0.82,N,1.52,K,D*2A
$HEHDT,267.87,T*13
$HEROT,-537.6,A*01
$PSAT,HPR,044619.60,267.87,2.5,-8.1,G*0C
$GPGGA,044619.60,3101.7186088,N,12126.3573605,E,2,05,7.3,4.551,M,9.725,M,6.6,0129*72
$GPVTG,102.79,T,108.55,M,0.29,N,0.54,K,D*28
$HEHDT,268.97,T*1D
$HEROT,-478.7,A*0A
$PSAT,HPR,044619.70,268.97,3.2,-7.5,G*0E
$GPGGA,044619.70,3101.7186044,N,12126.3573689,E,2,05,7.3,4.560,M,9.725,M,6.7,0129*74
$GPVTG,155.12,T,160.88,M,0.12,N,0.22,K,D*20
$HEHDT,269.93,T*18
$HEROT,-427.2,A*05
$PSAT,HPR,044619.80,269.93,4.4,-7.8,G*08
$GPGGA,044619.80,3101.7185930,N,12126.3573767,E,2,05,7.3,4.570,M,9.725,M,6.8,0129*7D
$GPVTG,184.37,T,190.13,M,0.76,N,1.41,K,D*20
$HEHDT,269.55,T*12
$HEROT,-417.5,A*01
$PSAT,HPR,044619.90,269.55,5.5,-7.0,G*0B
$GPGGA,044619.90,3101.7185840,N,12126.3573730,E,2,05,7.3,4.569,M,9.725,M,6.9,0129*71
$GPVTG,192.71,T,198.47,M,0.35,N,0.64,K,D*2D
$HEHDT,269.64,T*10
